"uuid","genus","specificepithet","locality","country","stateprovince","county","datecollected","longitude","latitude","flags"
"001dc98a-f317-4416-b501-873841ba2426","lynx","canadensis","mansfield lake","united states","alaska","","1964-01-08","-143.41","63.5","[""idigbio_georeference""]"
"007a9e83-0859-4d2a-a643-c12b709882fb","lynx","canadensis","little tok river","united states","alaska","","2003-11-01","-143.2944436111","62.6957633333","[""idigbio_georeference""]"
"00f386da-d712-4988-b6b2-5bec6b1c74dd","lynx","canadensis","tok river","united states","alaska","","1964-02-25","-142.85","63.36","[""idigbio_georeference""]"
"014a9791-6bea-4b52-9125-19f1c8784da6","lynx","canadensis","sheep creek","united states","alaska","","1999-11-01","-141.8166666667","62.2833333333","[""idigbio_georeference""]"
"015650fc-82c8-4e62-8e77-03c309f814a0","lynx","canadensis","lake minchumina","united states","alaska","","1880-01-01","-152.2110480556","63.8984547222","[""idigbio_georeference""]"
"000ded77-23e2-4e8a-82fe-252024090ab7","lynx","canadensis","kenai","united states","alaska","","","-151.258333","60.554444","[""geolocate_georeference""]"
"00541e57-1dde-4d38-91a2-11345ae0e70c","lynx","canadensis","bowden","canada","alberta","","1961-12-26","-114.033333","51.916667","[""geolocate_georeference""]"
"00f3c72e-5ebd-4fed-b129-ebd79fc87811","lynx","canadensis","mile 15 sucker river, fort yukon","united states","alaska","","1970-11-27","-145.211667","66.609167","[""geolocate_georeference""]"
"01982560-f634-4e57-9ccc-2aa17a528d6e","lynx","canadensis","tenderfoot creek","united states","alaska","","1970-01-17","-155.546389","64.101944","[""geolocate_georeference""]"
"0203b795-cd15-4138-8f67-49ffd8389f5a","lynx","canadensis","crosswind lake","united states","alaska","","","-146.0186","62.3552","[""idigbio_georeference""]"
"02164cfb-d7c3-4541-9d02-c5ac216a087e","lynx","canadensis","near fort nelson,snake river","canada","british columbia","","","-122.45154179188891","59.03321608479912","[""idigbio_georeference""]"
"02730d7f-8299-42be-995a-60a4b87bdcf1","lynx","canadensis","goodpaster flats","united states","alaska","","1964-02-15","-145.5","64.1333333333","[""idigbio_georeference""]"
"02cf1ec3-04cb-4182-9ca8-bfb3098a155c","lynx","canadensis","puskuta township","canada","ontario","algoma","1946-12-30","-83.5188","48.86231","[""idigbio_georeference""]"
"03611d55-9f19-4d06-af23-33a85c59f4c1","lynx","canadensis","sheep mountain lodge","united states","alaska","","1952-11-02","-147.49633940488548","61.812019390484934","[""idigbio_georeference""]"
"0358b636-3749-4bd8-a12c-e1c2c87e1173","lynx","canadensis","cushman creek","united states","alaska","","1998-12-05","-147.88","65.15","[""idigbio_georeference""]"
"027f1f25-eb6d-4f28-89c1-f4f9b3273f82","lynx","canadensis","brown lake","united states","alaska","","1969-12-01","-148.710052","65.446537","[""geolocate_georeference""]"
"02ec4157-b27a-4abb-92fe-b1b90359ad8b","lynx","canadensis","kluane","canada","yukon territory","","1936-02-17","-138.383333","61.033333","[""geolocate_georeference""]"
"030acfc9-d33a-4262-ba70-15d0f929b488","lynx","canadensis","mile 56 richardson highway, birch lake","united states","alaska","","1967-02-12","-147.166667","64.333333","[""geolocate_georeference""]"
"03184d79-d03f-4d26-af8f-26a684da1a07","lynx","canadensis","kantishna","united states","alaska","","1967-03-21","-150.95987","63.52491","[""geolocate_georeference""]"
"032b5525-5b3d-40e4-a51d-6f743b2eb351","lynx","canadensis","viola, 10 mi ne","united states","idaho","latah county","","-116.874968","46.940768","[""geolocate_georeference""]"
"032c289c-62b2-4fca-a63a-0623c29d5a5d","lynx","canadensis","upper little chena river","united states","alaska","","1967-11-28","-147.415556","64.852778","[""geolocate_georeference""]"
"0415b123-a0fd-45df-85a8-e66b39c9cf9d","lynx","canadensis","orkney township","canada","ontario","cochrane","1979-12-31","-83.5666667","49.3833333","[""idigbio_georeference""]"
"04377e0a-cbe3-4e4c-95af-36f1a5d314cd","lynx","canadensis","funny river","united states","alaska","","1994-03-14","-150.8655555556","60.4919444444","[""idigbio_georeference""]"
"04477a23-7590-4c33-a7d5-e22b90d96099","lynx","canadensis","george lake, mile 1385 alaska highway","united states","alaska","","1964-01-28","-144.58","63.78","[""idigbio_georeference""]"
"04d06d5d-aec7-438f-b33a-208e87772b7b","lynx","canadensis","sheep creek road","united states","alaska","","1963-12-22","-147.9229","64.8844","[""idigbio_georeference""]"
"04fedb70-6182-4be5-a56e-c786ebdc095e","lynx","canadensis","jan lake","united states","alaska","","","-143.91","63.56","[""idigbio_georeference""]"
"037d3b13-13df-482e-9acf-04bb3e54d53d","lynx","canadensis","coolin","united states","idaho","","1910-06-30","-116.849372","48.479641","[""geolocate_georeference""]"
"03b552b2-18e0-4a32-afdf-79b02357324b","lynx","canadensis","tanana river","united states","alaska","","1964-02-27","-151.960278","65.160556","[""geolocate_georeference""]"
"06083ccc-add8-4ec1-8250-aeb1fecbf53b","lynx","canadensis","delta junction","united states","alaska","","1964-02-25","-145.7333333333","64.0375","[""idigbio_georeference""]"
"0626e445-952b-4abc-ab20-7778741941c6","lynx","canadensis","robertson river","united states","alaska","","1999-02-01","-145.1333333333","63.1166666667","[""idigbio_georeference""]"
"052f32b6-0b18-4912-ab56-fd40177b562f","lynx","canadensis","hill city, 22 mi n on blue ridge mts.","united states","idaho","","1916-07-02","-111.872739","43.507218","[""geolocate_georeference""]"
"062e4ed9-9c4e-4b8d-bb93-63a7f12b6281","lynx","canadensis","7 mi s of northway, nabesna river","united states","alaska","","1964-02-14","-141.937222","62.860597","[""geolocate_georeference""]"
"0639e5f7-1ddd-4457-add8-59d0e17a8dbd","lynx","canadensis","chisholm","canada","alberta","","1961-11-24","-114.166667","54.916667","[""geolocate_georeference""]"
"06689905-f5f6-4597-a187-0d028fcf80d7","lynx","canadensis","jasper national park","canada","alberta","","1943-03-30","-118.166667","52.75","[""geolocate_georeference""]"
"073ef7f1-8aed-493d-b7e9-62997bd29a07","lynx","canadensis","blair lakes","united states","alaska","","","-147.3573694444","64.3609166667","[""idigbio_georeference""]"
"07a63f3f-5e4e-4acf-9f0a-4698bd2e28d5","lynx","canadensis","arden township","canada","ontario","sudbury","1979-11-10","-81.9166667","47.3666667","[""idigbio_georeference""]"
"06d5ca13-85e5-4c3f-8727-1278220ab9c0","lynx","canadensis","edmonton","canada","alberta","","","-113.5","53.55","[""geolocate_georeference""]"
"06ff6b52-9ce4-488b-930d-d9e2609c21ee","lynx","canadensis","bear creek, dot lake","united states","alaska","","1966-02-07","-145.403611","61.495","[""geolocate_georeference""]"
"08199046-bf95-4ac2-9557-0a147408fa20","lynx","canadensis","game management unit 13a, tolkana creek","united states","alaska","","1995-04-10","-142","62.1166666667","[""idigbio_georeference""]"
"0883a9c3-090f-41dd-90e2-7e4a5a55ca3b","lynx","canadensis","mosquito fork","united states","alaska","","2003-01-01","-141.9077777778","64.055","[""idigbio_georeference""]"
"08f6081c-a523-4a75-89cd-30271ff86550","lynx","canadensis","anaktuvuk pass","united states","alaska","","1957-01-12","-151.73583","68.14333","[""idigbio_georeference""]"
"09853c3c-2ef0-429a-a8be-1741d719ad03","lynx","canadensis","st. anne lake","united states","alaska","","1992-03-27","-146.0413888889","61.8797222222","[""idigbio_georeference""]"
"0840583e-c71a-44b3-b205-5e2c89372625","lynx","canadensis","lochsa river","united states","idaho","","1910-11-21","-115.599579","46.140184","[""geolocate_georeference""]"
"08520f0b-f4f7-401c-9e49-70adfe74e0be","lynx","canadensis","loomis, 20 mi nw","united states","washington","","1916-02-03","-119.944242","49.025224","[""geolocate_georeference""]"
"08cfa256-e82b-44b4-8caa-52143281129e","lynx","canadensis","fort greely","united states","alaska","","1965-01-09","-146.249198","63.90823","[""geolocate_georeference""]"
"0a1a50e3-452f-4f78-953a-25ffa2cd5ba3","lynx","canadensis","old woman creek","united states","alaska","","2001-01-01","-152.312222","63.882778","[""idigbio_georeference""]"
"0a254b7d-065e-490e-a934-988810cc350f","lynx","canadensis","","united states","alaska","","1957-11-01","-141","64.83","[""idigbio_georeference""]"
"0b5521bf-78c1-4154-98b2-3eee9a4a8327","lynx","canadensis","ewan lake","united states","alaska","","1966-01-01","-145.785","62.4274","[""idigbio_georeference""]"
"0b77376e-55dd-4195-80f2-a8396ea47e38","lynx","canadensis","star lake","canada","ontario","timiskaming","1949-12-29","-81.7666667","48.35","[""idigbio_georeference""]"
"0b9424a4-a287-448e-9d2f-02fec389d96d","lynx","canadensis","grafton","united states","north dakota","walsh","1963-11-05","-97.41065619603948","48.4121885928562","[""idigbio_georeference""]"
"09cfaf0a-8e8e-4c3f-9e03-02680bfeb172","lynx","canadensis","swanson creek, kenai peninsula","united states","alaska","","1907-03-01","-150.509899","60.864804","[""geolocate_georeference""]"
"0cad860a-805a-4d65-ad1d-1248911b89eb","lynx","canadensis","tazlina lake","united states","alaska","","1964-02-14","-145.3833333333","62.0333333333","[""idigbio_georeference""]"
"0bef719e-4049-4d01-87ca-a511418938fa","lynx","canadensis","hopedale","canada","newfoundland and labrador","labrador","","-60.233242","55.460711","[""geolocate_georeference""]"
"0c1b11ba-6a09-4311-b36b-7866725fc1cf","lynx","canadensis","site love","united states","alaska","","1962-12-07","-156.470466","71.385605","[""geolocate_georeference""]"
"0c1bc607-ac3e-41c1-8dd0-be951f4203d6","lynx","canadensis","birch lake","united states","alaska","","1996-12-01","-150.527468","60.722792","[""geolocate_georeference""]"
"0cdb8b0c-3106-440a-9534-06f621b2e478","lynx","canadensis","fort wainwright","united states","alaska","","1964-12-09","-147.781984","64.556751","[""geolocate_georeference""]"
"0d6daeeb-bd13-4187-8561-34ad0ccb5859","lynx","canadensis","glenn highway, near mile 163","united states","alaska","","1950-01-29","-146.541057","62.052361","[""geolocate_georeference""]"
"0e32c9fa-6756-4a5d-b57c-cc4bb8983aae","lynx","canadensis","eightmile slough","united states","alaska","","1968-02-10","-144.97","66.62","[""idigbio_georeference""]"
"0e9d2c52-9c3e-4a9a-abdb-00271d6f0c56","lynx","canadensis","eagle","united states","alaska","southeast fairbanks","1968-11-01","-141.2","64.78806","[""idigbio_georeference""]"
"0f6f5ac7-2c8f-40ec-85ca-4b98746b7e91","lynx","canadensis","mulvey township","canada","ontario","cochrane","1979-11-30","-83.3666667","49.9","[""idigbio_georeference""]"
"0e1bd307-496b-4202-a745-ab7dc509dd67","lynx","canadensis","valdez","united states","alaska","valdez-cordova","1970-03-01","-146.348333","61.130833","[""geolocate_georeference""]"
"0e3cb3c0-5e5d-4cc1-8ebb-b94a56dbc977","lynx","canadensis","10 mi n of sherman pass, ferry co., washington","united states","washington","ferry","1955-09-18","-118.479458","48.752113","[""geolocate_georeference""]"
"0e91f346-5dc8-48f0-bc89-b39f5e45e0c4","lynx","canadensis","carman","canada","manitoba","","1908-12-21","-98","49.5","[""geolocate_georeference""]"
"0f556ebb-40bf-4f23-9a7f-ab2a74d13d5d","lynx","canadensis","manley hot springs trail near ohio creek","united states","alaska","","2000-01-01","-148.4658","64.7814","[""idigbio_georeference""]"
"0fe45d60-8ff5-4951-9f2b-1342e40612f1","lynx","canadensis","parnell township","canada","ontario","algoma","1980-01-02","-82.97773258010568","49.385319579102664","[""idigbio_georeference""]"
"10caadfd-b5d6-489f-9dda-5b341f96c065","lynx","canadensis","cushman creek","united states","alaska","","1998-12-05","-147.8833333333","65.15","[""idigbio_georeference""]"
"100752db-39e9-4b01-af8d-810704c4aa14","lynx","canadensis","mamby hot springs","united states","alaska","","1969-11-15","-154.835833","64.923611","[""geolocate_georeference""]"
"109b7a57-f57d-4797-963e-46b4b2273b33","lynx","canadensis","chapleau","canada","ontario","sudbury district","1968-01-30","-83.4","47.833333","[""geolocate_georeference""]"
"118e61cd-ac91-42af-b6d2-ae80ed581664","lynx","canadensis","","united states","alaska","","1955-11-01","-156.83","66","[""idigbio_georeference""]"
"11970018-bfb7-46c5-a191-adde27b4eee2","lynx","canadensis","tolsona lake","united states","alaska","","1969-01-04","-146.048","62.1162","[""idigbio_georeference""]"
"12020e4e-6e30-454d-8d17-09c6c84ec981","lynx","canadensis","moose creek","united states","alaska","","1955-01-22","-148","65","[""idigbio_georeference""]"
"1150ae04-6816-468e-b88c-e3e79bb19042","lynx","canadensis","porcupine creek area","united states","alaska","","1964-11-23","-142.69","63.380833","[""geolocate_georeference""]"
"127f60e6-34db-48e3-a84c-71478670abb3","lynx","canadensis","globe creek","united states","alaska","","1969-12-24","-148.403611","65.250278","[""geolocate_georeference""]"
"1371fed9-c049-42c3-a41f-045c9c845e4c","lynx","canadensis","petry","canada","ontario","thunder bay","1950-01-16","-90.84450011638955","49.3396843231331","[""idigbio_georeference""]"
"130998d1-e5f9-45a4-8f0c-37a1de575cb9","lynx","canadensis","olnes","united states","alaska","","1965-12-20","-147.67","65.074167","[""geolocate_georeference""]"
"1377bca5-fa2c-4f78-8f9f-6930329ce185","lynx","canadensis","elk","united states","wyoming","","1917-08-26","-110.547429","43.786606","[""geolocate_georeference""]"
"1429afd5-0670-43f7-9f6e-8d7683163635","lynx","canadensis","indian river","united states","alaska","","1968-06-26","-161.947222","59.290556","[""geolocate_georeference""]"
"14c32854-7572-4dd1-8e3f-e69f726aebc3","lynx","canadensis","cedarville","united states","michigan","chippewa","1958-03-15","-84.36313158408419","45.99811756424794","[""idigbio_georeference""]"
"14c3ce31-2445-404e-8bfb-e71f632c4ced","lynx","canadensis","5 miles east of fairbanks","united states","alaska","","1998-12-21","-147.5","64.84","[""idigbio_georeference""]"
"14ef8a96-338b-4599-8977-0f19b255b2e2","lynx","canadensis","french creek","united states","alaska","","2003-01-01","-146.7009008333","64.6155266667","[""idigbio_georeference""]"
"14f49c36-bbb2-40aa-b731-e19b1a03c14f","lynx","canadensis","tatalina","united states","alaska","","1999-11-01","-148.3216094","65.3244453","[""idigbio_georeference""]"
"15badb6f-8fc6-4cbb-bd2c-70cca1e527dd","lynx","canadensis","gardiner creek flats","united states","alaska","","1999-11-01","-141.5211105","62.8194427","[""idigbio_georeference""]"
"160666d5-3a1c-4c87-9303-4fbfad42ffa3","lynx","canadensis","goose bay","united states","alaska","matanuska-susitna borough","1958-11-16","-149.5216667","61.3716667","[""idigbio_georeference""]"
"14851b41-69f0-4b57-afb3-2805badfd826","lynx","canadensis","swan hills (town)","canada","alberta","","","-115.75","54.866667","[""geolocate_georeference""]"
"14d3f2ed-87e3-4280-a183-ce539a324d00","lynx","canadensis","nenana river","united states","alaska","","1991-12-31","-149.105","64.564722","[""geolocate_georeference""]"
"1625cd02-74d1-477d-9917-24f0615adb0e","lynx","canadensis","kettle valley; e of kelowna","canada","british columbia","","1913-12-29","-118.943446","49.056813","[""idigbio_georeference""]"
"16709aa0-ba42-4aa2-b1b5-2d1932ab4673","lynx","canadensis","old nenana highway","united states","alaska","","1965-01-14","-148.04","64.85","[""idigbio_georeference""]"
"168b2a06-dd9d-45c4-99db-ca2b15765641","lynx","canadensis","healy","united states","alaska","","1964-02-19","-148.96","63.85","[""idigbio_georeference""]"
"16e5197f-bec5-4396-919a-185059711a75","lynx","canadensis","tok, across indian river","united states","alaska","","1968-01-10","-149.655278","62.785833","[""geolocate_georeference""]"
"17469975-66cc-46db-8271-e102a931c7ad","lynx","canadensis","lower skeenan river, near seven sisters","canada","british columbia","","1915-11-08","-128.216667","54.966667","[""geolocate_georeference""]"
"17f1744d-b381-4585-915c-2d97662984a0","lynx","canadensis","kennedy township","canada","ontario","cochrane","1979-11-01","-80.7833333","49.1166667","[""idigbio_georeference""]"
"180e76d1-3e49-47b0-9150-99fcc141d7a8","lynx","canadensis","cooper township","canada","ontario","thunder bay","","-84.9333333","48.6","[""idigbio_georeference""]"
"190eba06-555d-4d87-93b3-94f608a1aaf2","lynx","canadensis","poulin township","canada","ontario","algoma","1979-12-15","-82.86969","46.66837","[""idigbio_georeference""]"
"18e60bce-7342-4aad-98e7-5124c1f2090d","lynx","canadensis","moosehead lake, mile 1385 alaska highway","united states","alaska","","1964-02-28","-148.0652777778","64.8472222222","[""idigbio_georeference""]"
"19241fb3-31a0-415f-b007-1b602995f2e5","lynx","canadensis","vigor creek","united states","alaska","","1999-11-01","-148.7","65.3333333333","[""idigbio_georeference""]"
"193e161b-5cb4-43d9-972e-794819499719","lynx","canadensis","delta junction","united states","alaska","","1964-02-02","-147.73","64.03","[""idigbio_georeference""]"
"197e274c-b0a3-498d-873d-4944517ebbb0","lynx","canadensis","standard creek","united states","alaska","","1999-11-01","-148.5191803","64.778614","[""idigbio_georeference""]"
"19a6a781-2899-47f2-a165-f103e170ff6f","lynx","canadensis","28 miles e fairbanks on chena river","united states","alaska","","1974-01-15","-146.76577","64.834746","[""idigbio_georeference""]"
"1b4c6f74-e4a4-4e41-889f-b0684cc89744","lynx","canadensis","minnipuka township","canada","ontario","cochrane","1979-12-04","-83.7333333","49","[""idigbio_georeference""]"
"1844d466-2837-4abd-bceb-9c3a2c4bcf69","lynx","canadensis","minto flats","united states","alaska","","1999-01-01","-149.349708","65.150411","[""geolocate_georeference""]"
"18c2aec9-8aa7-4503-ad6b-0e547ac52486","lynx","canadensis","nabesna river","united states","alaska","","","-141.865833","63.049167","[""geolocate_georeference""]"
"18fcef7b-6dfc-4d46-a40e-295afc6e2cbd","lynx","canadensis","prince rupert","canada","british columbia","","1916-03-15","-130.333333","54.316667","[""geolocate_georeference""]"
"192eb4b0-fd34-4a8d-b278-7634a12a63fa","lynx","canadensis","pippin lake","united states","alaska","","1972-12-20","-145.170164","61.709022","[""geolocate_georeference""]"
"19c7606e-0d14-4f5d-a880-9530b7d79e1a","lynx","canadensis","bernhardt township","canada","ontario","timiskaming","1980-02-15","-80.0666667","48.2333333","[""idigbio_georeference""]"
"19f4cd67-b101-4b47-bb48-cfe8ae566200","lynx","canadensis","lake clark","united states","alaska","","2003-02-17","-154.2497437","60.2192472","[""idigbio_georeference""]"
"1a1592a8-2439-46bf-9d81-a96578beb5b4","lynx","canadensis","dry creek, alaska highway","united states","alaska","","1964-01-05","-144.56","63.7","[""idigbio_georeference""]"
"1c040b35-d9cd-4365-952a-f5746a1b15a0","lynx","canadensis","molly creek, hunt fork","united states","alaska","","1960-02-04","-142.93859165211384","64.18948422258983","[""idigbio_georeference""]"
"1aa11506-62c4-415f-8396-a81a950fdaa1","lynx","canadensis","livengood","united states","alaska","","1970-01-01","-148.54","65.52","[""idigbio_georeference""]"
"1b379988-c2b4-4a61-b4a7-df52115ee34b","lynx","canadensis","chickaloon","united states","alaska","","2012-02-09","-147.81473","61.80086","[""idigbio_georeference""]"
"1a6d1114-1de1-4700-b6cb-8b723baed670","lynx","canadensis","gerstle river road","united states","alaska","","1967-11-11","-145.135278","64.056944","[""geolocate_georeference""]"
"1aea2ac9-3493-4291-9898-c8a1c4af6e32","lynx","canadensis","upper ladue river","united states","alaska","","1999-11-01","-140.371667","63.123333","[""geolocate_georeference""]"
"1c145837-5c79-491b-a312-b8ee1f8396b7","lynx","canadensis","stuarts lake","canada","british columbia","","1891-03-28","-64.854722","43.900556","[""geolocate_georeference""]"
"1c35b5fe-decf-45fb-baaf-62c3ca4cb980","lynx","canadensis","mail slough","united states","alaska","","1880-01-01","-149.000556","66.050556","[""geolocate_georeference""]"
"1cd9061e-635c-4632-a1f2-f89eaa2f1480","lynx","canadensis","big porcupine creek","united states","montana","rosebud","1887-10-25","-106.814712","46.29642","[""geolocate_georeference""]"
"1d962d41-276b-4b4c-a637-004678b383a4","lynx","canadensis","lake tustumena, kenai peninsula","united states","alaska","","1908-02-10","-150.9411111111","60.2294444444","[""idigbio_georeference""]"
"1ed5d4d1-c842-463c-b0fe-42091eadaf2a","lynx","canadensis","chena river","united states","alaska","","1964-02-21","-147.91","64.79","[""idigbio_georeference""]"
"1da3b99d-80a3-470d-b8a1-3926093ff82a","lynx","canadensis","barkerville, indian point creek","canada","british columbia","","","-134.096111","59.618333","[""geolocate_georeference""]"
"1dc78503-59f4-4e17-80cf-454d74f2401f","lynx","canadensis","hawk hills","canada","alberta","","","-117.75","57.5","[""geolocate_georeference""]"
"1dfa1c31-46df-4483-b8b0-7830c2a88399","lynx","canadensis","rosie creek","united states","alaska","","1999-11-01","-150.294444","67.198056","[""geolocate_georeference""]"
"1eb98abf-c749-4b44-8ec2-a682b16e001b","lynx","canadensis","iron county, michigan","united states","michigan","iron county","","-88.530527","46.208692","[""geolocate_georeference""]"
"202f5dc6-a823-49b6-96b4-0a6917fc38e6","lynx","canadensis","bowron lake region, barkerville district","canada","british columbia","","1927-01-01","-121.3833","53.2333","[""idigbio_georeference""]"
"20334c4e-c679-424b-8fcc-32ab1a259b26","lynx","canadensis","bottenintnin lake","united states","alaska","","1997-11-17","-150.5552777778","60.5155555556","[""idigbio_georeference""]"
"20a84250-0f3a-4e42-9a24-3cf77fd7a3aa","lynx","canadensis","craig township","canada","ontario","sudbury","","-81.75","46.7666667","[""idigbio_georeference""]"
"1f2f4a18-bea1-4325-afc6-427aeb963ed3","lynx","canadensis","gakona","united states","alaska","","1965-12-01","-145.301944","62.301944","[""geolocate_georeference""]"
"1f32fa74-beb9-4760-9373-92e8c5eb9135","lynx","canadensis","upper chisana drainage","united states","alaska","","","-142.040833","62.066111","[""geolocate_georeference""]"
"1f8ef98b-89dd-4ec3-8170-7068f02e9faf","lynx","canadensis","lakina river","united states","alaska","","1972-12-14","-143.566111","61.324167","[""geolocate_georeference""]"
"1fe18943-6c2d-4e63-927e-a70982fe3148","lynx","canadensis","otter creek","canada","alberta","","1961-11-20","-115.983333","52.191389","[""geolocate_georeference""]"
"206414fa-e8b4-4746-91ee-4666042b6fc1","lynx","canadensis","ashland","united states","maine","aroostook","1993-01-26","-68.406152","46.631153","[""geolocate_georeference""]"
"20ce3e3f-f90b-484a-970a-e5ca0748b198","lynx","canadensis","ladue river","united states","alaska","","","-140.36","63.01","[""idigbio_georeference""]"
"20f9f5d8-0b96-4b87-9a74-a973aa3b35a2","lynx","canadensis","vermillion creek, 38 km se norman wells","canada","northwest territories","","2004-01-01","-126.1333333333","65.1166666667","[""idigbio_georeference""]"
"218bdae4-0fba-4293-b5bf-71027c5d4599","lynx","canadensis","ninilchick, kenai peninsula","united states","alaska","","1905-12-01","-151.6688888889","60.0513888889","[""idigbio_georeference""]"
"21bfd4af-174b-4913-953f-1f8ee0262b84","lynx","canadensis","hunt fork","united states","alaska","","1957-02-16","-152.56997747380152","67.81193660570223","[""idigbio_georeference""]"
"224d69fe-80cf-4c59-a3ba-fca2043c6bfd","lynx","canadensis","clear creek by anderson","united states","alaska","","1995-02-07","-149.11","64.4","[""idigbio_georeference""]"
"47d7c988-6d5d-4ae1-8eec-194e52f59e25","lynx","canadensis","methow crest","united states","washington","chelan","1952-12-27","-120.003685","48.130143","[""geolocate_georeference""]"
"2189e806-398d-4d14-961b-8145a846c727","lynx","canadensis","aklavik","canada","northwest territories","","","-135","68.216667","[""geolocate_georeference""]"
"22d94aac-8d73-4384-a604-b0cb75bd80dc","lynx","canadensis","gillies limit township","canada","ontario","timiskaming","1979-11-28","-79.7333333","47.2833333","[""idigbio_georeference""]"
"23293bdc-0817-47f2-903b-40e513bcf8bf","lynx","canadensis","laberge township","canada","ontario","thunder bay","1979-11-25","-85.6467","48.67013","[""idigbio_georeference""]"
"235ecc59-0a66-4d67-8442-d9961b7410b2","lynx","canadensis","yaremko township","canada","ontario","algoma","1980-01-27","-82.61967","46.84628","[""idigbio_georeference""]"
"22a52113-30df-4901-81fa-1b0e5aa8a41b","lynx","canadensis","32 mi. north-northeast of galena.","united states","alaska","yukon-koyukuk dist.","2003-01-01","-156.9275","64.733333","[""geolocate_georeference""]"
"2355ff5d-557f-45de-86a6-088dc018980a","lynx","canadensis","old saulich","united states","alaska","","1964-03-31","-148.277778","64.863333","[""geolocate_georeference""]"
"244f3033-5db8-4468-a6c6-3cb6ff9b6a67","lynx","canadensis","murphy dome","united states","alaska","","1953-12-06","-148.33","64.91","[""idigbio_georeference""]"
"24efeaef-bfcb-4038-89ef-2b36ffecc7ef","lynx","canadensis","kusilif [=kasilof?], kenai peninsula","united states","alaska","","1906-11-12","-151.2744444444","60.3375","[""idigbio_georeference""]"
"2517ab31-49a8-4ed3-b17e-e501aeff22ea","lynx","canadensis","t45n, r2e, section 6, dunbar","united states","michigan","chippewa","1962-09-11","-84.22793173871551","46.324918946815885","[""idigbio_georeference""]"
"28608987-6c17-49b4-9ba3-a51d43ab6bb6","lynx","canadensis","doyles","canada","newfoundland and labrador","","1954-12-30","-59.1833333333333","47.8333333333333","[""idigbio_georeference""]"
"23cae8a6-b7c6-4063-80c3-422746f3e2cb","lynx","canadensis","117 mi ne of anchorage","united states","alaska","","1952-11-02","-147.41829","62.38922","[""geolocate_georeference""]"
"24a81032-b3de-43d3-b88f-cc71b0d15d0f","lynx","canadensis","slana river","united states","alaska","","1965-12-21","-144.008333","62.7","[""geolocate_georeference""]"
"25c5e497-864b-4d70-b8d4-454f6ba5ce58","lynx","canadensis","charters township","canada","ontario","timiskaming","1980-02-27","-80.7166667","47.55","[""idigbio_georeference""]"
"25f69f9e-548b-4895-ac7e-ab986f0467ca","lynx","canadensis","chulitna valley","united states","alaska","","","-149.75","62.93","[""idigbio_georeference""]"
"26c3854b-234e-49e7-9dcb-3bbd2774920e","lynx","canadensis","mccord creek","united states","alaska","","1994-12-01","-141","63.6166666667","[""idigbio_georeference""]"
"26e913ab-e735-49c2-b0cb-093ea7d0ae77","lynx","canadensis","drewsey, vicinity of; stinkingwater mountains","united states","oregon","harney co","1993-01-08","-118.37743428332992","43.80657993907553","[""idigbio_georeference""]"
"25f6040f-8ac1-4b59-9f93-933fbaad1e07","lynx","canadensis","kenny lake, copper center","united states","alaska","","1880-01-01","-145.329729","61.97696","[""geolocate_georeference""]"
"266a1b48-c13e-4fa9-bb2d-e94a3f2210f6","lynx","canadensis","fox","united states","alaska","","1966-02-22","-147.618333","64.958056","[""geolocate_georeference""]"
"268fe533-b6af-491c-b239-82e68db41dbe","lynx","canadensis","whiteshell park, crowduck lake","canada","manitoba","","1981-12-27","-95.25","50.133333","[""geolocate_georeference""]"
"26ad5a9e-bf9e-470c-b3d4-d01843aa16d4","lynx","canadensis","wood river","united states","alaska","","1973-01-21","-148.679167","64.585","[""geolocate_georeference""]"
"26bbc973-4343-4d76-8d41-cc9820526c29","lynx","canadensis","chicken","united states","alaska","","1916-02-05","-141.936111","64.073333","[""geolocate_georeference""]"
"273f2d8f-c116-4115-ab57-e20cb99663c7","lynx","canadensis","tacla lake, nw arm","canada","british columbia","","","-125.866667","55.2","[""geolocate_georeference""]"
"27f1101d-5c35-4c1e-868a-1f33cd333cc0","lynx","canadensis","price township","canada","ontario","cochrane","1979-11-03","-81.4166667","48.3333333","[""idigbio_georeference""]"
"2814f2b3-57a5-473e-909d-0865a8fd47fd","lynx","canadensis","davies township","canada","ontario","sudbury","1980-01-05","-86.05","49.1666667","[""idigbio_georeference""]"
"285ef63d-3802-4c2b-b78e-9ad0aa6989f0","lynx","canadensis","chatanika river","united states","alaska","","1955-12-06","-147.5","65","[""idigbio_georeference""]"
"27491fd2-9e61-4c28-ac98-e1073fbc2b57","lynx","canadensis","fork of blindman and red deer rivers","canada","alberta","","1897-01-21","-113.8","52.266667","[""geolocate_georeference""]"
"27574f05-1609-46c6-96af-c9e453d87497","lynx","canadensis","hard luck creek","united states","alaska","","1991-12-07","-141.630556","65.291667","[""geolocate_georeference""]"
"28ca35d8-51f4-4bfa-8c7d-0718a1a02dff","lynx","canadensis","little owyhee","united states","nevada","","1916-06-27","-116.098709","41.947679","[""geolocate_georeference""]"
"29599074-1fcd-4bca-bb39-4f0ba7fe16e8","lynx","canadensis","gardiner creek","united states","alaska","","","-141.51","62.81","[""idigbio_georeference""]"
"2996472e-b4e3-4041-b7c8-f062b5c66e8f","lynx","canadensis","fairbanks","united states","alaska","","1954-12-17","-148.3333333333","64.9166666667","[""idigbio_georeference""]"
"29d0a845-048d-4dee-9c20-07411d61482e","lynx","canadensis","vic.fort nelson","canada","british columbia","","","-122.69868074549719","58.80547689635883","[""idigbio_georeference""]"
"2a960d33-6149-4cc2-9ec1-ca4577ff6b35","lynx","canadensis","ophir; tolstoi creek","united states","alaska","","1927-02-27","-156.5166667","63.1666667","[""idigbio_georeference""]"
"2aa7e95a-3429-4be3-aacc-cd7998cc40b1","lynx","canadensis","halsey township","canada","ontario","sudbury","1947-11-30","-83.6833333","47.7166667","[""idigbio_georeference""]"
"295bde67-f955-4013-b118-6dd37914792d","lynx","canadensis","tolsona river","united states","alaska","","1972-12-05","-146.070278","62.083889","[""geolocate_georeference""]"
"29e03a57-5c50-4ebf-a76b-56a4fa82081e","lynx","canadensis","ruby, on the yukon","united states","alaska","","1926-06-29","-155.486944","64.739444","[""geolocate_georeference""]"
"2b24230a-6bb4-4405-9df4-3c73b96fd7d3","lynx","canadensis","black hills","united states","alaska","","","-141.75","62.6666666667","[""idigbio_georeference""]"
"2bbdb02e-0c02-4c5d-b557-44877fcca607","lynx","canadensis","bonnifield trail","united states","alaska","","1999-02-01","-148.03","64.33","[""idigbio_georeference""]"
"2bca7585-84ef-4425-aaaa-eb27c0f48d98","lynx","canadensis","chitina river","united states","alaska","","1966-03-01","-143.12","61.32","[""idigbio_georeference""]"
"2c332055-9ca9-4be7-8614-73b90c67c227","lynx","canadensis","tanana river","united states","alaska","","1964-02-26","-151.9583333333","65.1583333333","[""idigbio_georeference""]"
"2b4a0b1b-cd55-42b5-8a3c-e2e3bc514d32","lynx","canadensis","chewelah ?, near ?","united states","washington","stevens county","1917-06-24","-117.715521","48.276287","[""geolocate_georeference""]"
"2b952607-9180-4795-bb2d-9c2e325635a6","lynx","canadensis","platinum creek","united states","alaska","","","-161.725833","58.895","[""geolocate_georeference""]"
"2bb5c38c-7930-42f2-b8a0-9cd388cf9924","lynx","canadensis","salcha river","united states","alaska","","1967-01-01","-146.978889","64.466667","[""geolocate_georeference""]"
"2c8ca433-a373-4d4c-be5e-17da2f6d1f69","lynx","canadensis","w fork of dennison river","united states","alaska","","2002-12-01","-142.5213888889","63.4088888889","[""idigbio_georeference""]"
"2cb2855c-70d2-4150-9c33-ee379e8aecbf","lynx","canadensis","ladue river","united states","alaska","","","-141.7636","63.3375","[""idigbio_georeference""]"
"2d0b6478-dbd1-4477-9a2a-5c126133216f","lynx","canadensis","mansfield creek","united states","alaska","","","-143.4333333333","62.4833333333","[""idigbio_georeference""]"
"2dbacb88-9d19-4704-89ad-0cad6cdad9ce","lynx","canadensis","lemoine township","canada","ontario","sudbury","1980-01-30","-82.6833333","48.2666667","[""idigbio_georeference""]"
"2e0fa5bd-bbc3-471a-8f2a-91f06e903c07","lynx","canadensis","birch hill","united states","alaska","","1962-11-01","-147.6333333333","64.8666666667","[""idigbio_georeference""]"
"2cf077d5-cccf-4d9d-965b-34b7fcaa8ba9","lynx","canadensis","godbout","canada","quebec","","1890-02-17","-67.6","49.316667","[""geolocate_georeference""]"
"2d8eb556-a5f3-423e-8238-61955d9ed486","lynx","canadensis","inuvik","canada","northwest territories","","","-133.7","68.35","[""geolocate_georeference""]"
"74d5bbbc-5bf5-42dd-afc1-1ef3de1ff309","lynx","canadensis","chickaloon flats","united states","alaska","","1958-03-01","-148.462778","61.796667","[""geolocate_georeference""]"
"2de98dc6-6385-4f05-b658-dae43390dee7","lynx","canadensis","kootenay landing","canada","british columbia","kootenay boundary","1954-10-31","-116.683333","49.25","[""geolocate_georeference""]"
"2fcbfc00-5efb-4289-8f1b-0e631f3cb43f","lynx","canadensis","27 mi sw fairbanks","united states","alaska","","1994-04-01","-148.6","64.81","[""idigbio_georeference""]"
"2f27b567-60bc-4ef3-9add-0fb4b96116d6","lynx","canadensis","trout lake, mount adams","united states","washington","","1897-01-27","-121.528137","45.997343","[""geolocate_georeference""]"
"2f2aaaf3-a017-40c7-b055-a6d3c7b1fd69","lynx","canadensis","squaw creek","united states","alaska","","1968-01-05","-143.871944","61.551667","[""geolocate_georeference""]"
"2f340ca8-d2e5-4c5f-8f24-d395fd103281","lynx","canadensis","lower 10 mi of chickaloon river","united states","alaska","","1957-12-01","-150.058611","60.917222","[""geolocate_georeference""]"
"2f45c3cf-ffe9-4b83-ae7d-8768c8727ed4","lynx","canadensis","near chistochina, e side of indian river","united states","alaska","","","-144.65417","62.571783","[""geolocate_georeference""]"
"2f9b84d1-63c1-4f62-931e-ff81b29413b1","lynx","canadensis","6 mi n of fort yukon","united states","alaska","","1967-11-04","-145.273889","66.651311","[""geolocate_georeference""]"
"3059c170-0721-4673-ab39-66dedbb3acdb","lynx","canadensis","cleary summit","united states","alaska","","1999-01-01","-147.43","65.03","[""idigbio_georeference""]"
"30c90d53-8227-46b9-9b40-452a515975d2","lynx","canadensis","gold king creek","united states","alaska","","","-148.0166666667","64.3333333333","[""idigbio_georeference""]"
"30dbd7ac-2678-4d1b-8597-f114927e3a92","lynx","canadensis","goldstream creek","united states","alaska","","1998-12-05","-148.43","65.96","[""idigbio_georeference""]"
"31c28e7b-3e75-4560-bf01-42459057cad1","lynx","canadensis","60mi s fort nelson,elleh cr.","canada","british columbia","","1947-12-09","-121.72243953960749","58.4775380074427","[""idigbio_georeference""]"
"31d14708-1512-4aed-b37e-efa6f41c10ac","lynx","canadensis","calgary zoo, calgary, alberta","","","","1968-06-27","-114.0954225245857","51.03894841251626","[""idigbio_georeference""]"
"30623976-0dce-4b4d-b11d-9a5dbd4ef647","lynx","canadensis","susitna flat","united states","alaska","","1954-04-04","-150.5125","61.543611","[""geolocate_georeference""]"
"32644c68-23e1-4e84-a097-dbfbf28225e6","lynx","canadensis","delta river","united states","alaska","","1964-02-17","-145.85","64.1583333333","[""idigbio_georeference""]"
"3273fb51-aaab-4be7-879d-c1fbb7ede84d","lynx","canadensis","salchaket slough","united states","alaska","","2000-02-01","-147.9","64.7333333333","[""idigbio_georeference""]"
"3301a9dc-362d-43d9-9102-ba7a063465db","lynx","canadensis","","canada","alberta","","1961-12-16","-114.2289","54.457804","[""idigbio_georeference""]"
"33241c21-40a4-49a7-bd54-17a4b76dcd0e","lynx","canadensis","specific locality unknown","united states","alaska","","1992-02-27","-143.243","61.3521","[""idigbio_georeference""]"
"334dc4d9-cf34-4d1a-889b-03c1295ab893","lynx","canadensis","mosquito fork","united states","alaska","","1999-12-01","-143.7833333333","63.9666666667","[""idigbio_georeference""]"
"3259eaea-9644-4dc9-bf36-86cdb100bba4","lynx","canadensis","mount mckinley","united states","alaska","","1908-01-02","-151.00605","63.069346","[""geolocate_georeference""]"
"33353386-fd9e-4ef8-834a-be69876bc071","lynx","canadensis","kiagna river area","united states","alaska","","1992-02-27","-142.533333","61.108333","[""geolocate_georeference""]"
"be418fa1-9963-491e-8737-19dc9b04f6f0","lynx","canadensis","goose lake (undet.)","canada","alberta","","","-113.86","49.4275","[""geolocate_georeference""]"
"339bee93-ddea-445c-8ce2-e19be28b4b7c","lynx","canadensis","yerich creek","united states","alaska","","1966-02-11","-151.760556","62.293056","[""geolocate_georeference""]"
"35a30a12-3354-4850-a7d3-1be6c4f731de","lynx","canadensis","quartz creek","united states","alaska","kenai peninsula","","-149.723778","60.475982","[""geolocate_georeference""]"
"3449f48a-d860-4998-a1b4-12b5d571d201","lynx","canadensis","o'bryan creek","united states","alaska","","1991-12-01","-142.032778","62.038611","[""geolocate_georeference""]"
"354d92f8-9a3d-4a6a-92d2-bb69d7e5e0e4","lynx","canadensis","kenny lake","united states","alaska","","1966-01-01","-144.94","61.73","[""idigbio_georeference""]"
"385150e9-aec7-4ae8-be33-f72a911125c0","lynx","canadensis","valin township","canada","ontario","sudbury","1980-01-06","-81","47.1833333","[""idigbio_georeference""]"
"35a32052-3c52-4373-bc68-138dbd9a9662","lynx","canadensis","blue creek, big delta","united states","alaska","","1964-01-28","-156.340556","57.658333","[""geolocate_georeference""]"
"35e31228-f9ee-4600-a370-ce6c02fbeb43","lynx","canadensis","clearwater","united states","idaho","","1915-11-25","-115.890974","46.022393","[""geolocate_georeference""]"
"35f3ea4f-38da-425c-a104-8ba23c174298","lynx","canadensis","mosquito lake","united states","alaska","","","-136.023673","59.461044","[""geolocate_georeference""]"
"3603a041-6e2c-44af-8f6e-646d921af0f0","lynx","canadensis","tra1601, t94, r2, w6, notikewin","canada","alberta","","1976-02-02","-117.633333","56.983333","[""geolocate_georeference""]"
"36ca2a5a-47a0-4f40-b104-5f512ccca351","lynx","canadensis","near homer, 15c","united states","alaska","","","-151.5387513889","59.6597708333","[""idigbio_georeference""]"
"36d0b41a-a2b2-4f72-8be7-d12eef00f082","lynx","canadensis","tok","united states","alaska","","1957-01-01","-143","63.4166666667","[""idigbio_georeference""]"
"374c0a10-4c16-43d3-9d2a-38d811a8c1ac","lynx","canadensis","four-mile lake, 4 miles up taylor highway","united states","alaska","","","-142.6","63.3","[""idigbio_georeference""]"
"388eddcf-1239-46ba-8fbf-02827dfefe40","lynx","canadensis","tannin","canada","ontario","kenora","","-91.0166667","49.65","[""idigbio_georeference""]"
"3766fc49-239b-43f8-93d4-895cef59e08c","lynx","canadensis","oates township","canada","ontario","sudbury","1980-01-24","-82.5","48.3666667","[""idigbio_georeference""]"
"37e0cc0a-54a2-4794-8ea4-744ec4cf12aa","lynx","canadensis","mile 101  elliot highway","united states","alaska","","1990-12-20","-150.63","65","[""idigbio_georeference""]"
"37f715b2-94f8-4bed-a11e-db940ecd07af","lynx","canadensis","may creek","united states","alaska","","1992-03-31","-142.6941666667","61.3691666667","[""idigbio_georeference""]"
"382a62ef-9e47-402d-8eb7-9c5d8a1a7bf0","lynx","canadensis","fonthill","canada","ontario","niagara; welland","1974-05-30","-79.2907","43.03695","[""idigbio_georeference""]"
"38334334-d0a7-4a15-bb87-eecfd4e23d93","lynx","canadensis","reeves township","canada","ontario","sudbury","1979-11-27","-82.1","48.2666667","[""idigbio_georeference""]"
"3691908b-6e8d-4fce-a9f6-2037c92c9f2f","lynx","canadensis","15 mi s hess creek","united states","alaska","","1970-11-03","-149.810278","65.455726","[""geolocate_georeference""]"
"37b461f5-66b3-4319-9c2b-3021810197f5","lynx","canadensis","dunbar trail near 11 mile lake","united states","alaska","","1996-01-14","-148.791389","64.7575","[""geolocate_georeference""]"
"38c1f820-e3d7-4356-adaf-4dd0d703e498","lynx","canadensis","big creek, north of ladue river","united states","alaska","","","-141.2144","63.5723","[""idigbio_georeference""]"
"38e9ef34-e1d7-4f78-b9d0-8d0e42cbfcb3","lynx","canadensis","gorham township","canada","ontario","thunder bay","1980-01-25","-89.28134","48.57839","[""idigbio_georeference""]"
"38fd6ffc-f12c-4e91-9295-2ff5d46b6a60","lynx","canadensis","chitna area","united states","alaska","","1966-02-01","-144.466666667","61.4666666667","[""idigbio_georeference""]"
"39a7cb3e-177d-4953-97be-9f1909d04663","lynx","canadensis","gerstle river","united states","alaska","","","-145.13","64.05","[""idigbio_georeference""]"
"39fd11c4-5a56-48e2-89f3-454a83c218c1","lynx","canadensis","richardson highway mile 50","united states","alaska","","1957-04-28","-146.5","64.3333333333","[""idigbio_georeference""]"
"3932a039-95c5-497a-bfdf-b6b1f20d8885","lynx","canadensis","gold range, harris creek plateau","canada","british columbia","","1935-01-27","-124.275556","48.582222","[""geolocate_georeference""]"
"399d2e3e-cc99-4c5a-8161-ca68314abfb4","lynx","canadensis","cross lake","canada","manitoba","","","-97.783333","54.616667","[""geolocate_georeference""]"
"398e9c35-c65d-46fc-84e9-ee960da94b29","lynx","canadensis","loomis; middle fk. toats coulee cr.; t39n r24e sec 28","united states","washington","okanogan county","2007-03-26","-119.8293","48.8504","[""geolocate_georeference""]"
"3a20b1f4-c5f2-4f61-b8ea-9aba66ff58f7","lynx","canadensis","","united states","alaska","","1996-03-03","-148.13","64.59","[""idigbio_georeference""]"
"3a5cfb0a-42ad-4fcf-bafc-7b33a1f2dc61","lynx","canadensis","summers township","canada","ontario","thunder bay","1979-12-08","-87.96926336556824","49.62213215836492","[""idigbio_georeference""]"
"3b49800b-0245-4887-b059-7c0e3409ae43","lynx","canadensis","goldstream creek","united states","alaska","","1998-12-05","-148.4333333333","64.9666666667","[""idigbio_georeference""]"
"3b74b05a-5b7c-4504-9bd7-aedb18b15c77","lynx","canadensis","auden township","canada","ontario","cochrane","1979-11-15","-84.3666667","49.9","[""idigbio_georeference""]"
"3b0afa27-8419-4804-8c52-b3c611ff55e2","lynx","canadensis","slana village area","united states","alaska","","","-136.186944","58.156667","[""geolocate_georeference""]"
"3b448d8e-5a34-4050-9ca1-94f38a651533","lynx","canadensis","s of copper river","united states","alaska","","1966-01-15","-144.563747","62.607572","[""geolocate_georeference""]"
"3b8d6f09-dda8-462b-8262-6c2c9f5b99da","lynx","canadensis","high prairie","canada","alberta","","1961-12-28","-116.483333","55.433333","[""geolocate_georeference""]"
"3d1ac047-6e6d-4343-bb30-9ac5714710ab","lynx","canadensis","5 mi s of beaver creek, yukon flats","united states","alaska","","2005-08-01","-147.55","66.15","[""idigbio_georeference""]"
"3d465163-ac89-4b3f-9a35-b44732a5faab","lynx","canadensis","eielson air force base","united states","alaska","","1958-04-08","-147.08","64.66","[""idigbio_georeference""]"
"3c4d2cb5-7c94-4083-8453-c08802aee52d","lynx","canadensis","o'regan's","canada","newfoundland and labrador","","1956-04-20","-59.229722","47.859444","[""geolocate_georeference""]"
"3ca040aa-a98f-4b67-80b4-00f18eab1ca4","lynx","canadensis","little gerstle river, mile 1388 alaska highway","united states","alaska","","1969-03-10","-144.777222","63.796944","[""geolocate_georeference""]"
"3d3f6188-1d35-4896-8bc6-9e644f9c0dda","lynx","canadensis","tanana riverside","united states","alaska","","2004-12-01","-147.59119","64.771","[""geolocate_georeference""]"
"3dbb869b-a906-4913-b380-f0c9bce5685e","lynx","canadensis","medfra","united states","alaska","","1965-12-09","-154.71","63.1","[""idigbio_georeference""]"
"3ddabeaa-6bab-40f2-a862-e57f938223b5","lynx","canadensis","","united states","alaska","","1990-12-22","-148.53","65.51","[""idigbio_georeference""]"
"3ed3d520-3351-4187-b834-80b2c99e6c78","lynx","canadensis","meader township","canada","ontario","thunder bay","1980-01-02","-87.96401","49.79556","[""idigbio_georeference""]"
"3f15d6da-bd4a-42d1-8ce1-89dedbd2f4d3","lynx","canadensis","bicknell township","canada","ontario","kenora","1979-11-30","-85.2166667","50.0333333","[""idigbio_georeference""]"
"3dfe53bb-058b-4c0a-9160-47a6c49bb1a0","lynx","canadensis","chatanika river / elliot highway","united states","alaska","","1999-11-01","-147.472222","65.1125","[""geolocate_georeference""]"
"3e5cff70-383d-4e30-a9bc-eb0b908f97c3","lynx","canadensis","hootalingua","canada","yukon","","1904-06-29","-134.916667","61.583333","[""geolocate_georeference""]"
"3ea50404-5d8e-47aa-9d39-b300347b3590","lynx","canadensis","moose creek","united states","wyoming","","1957-11-22","-109.944888","43.364113","[""geolocate_georeference""]"
"3f36240b-3586-4e33-83ab-da1cfda4b733","lynx","canadensis","10 mi above rampart","united states","alaska","","1965-02-21","-150.17","65.649334","[""geolocate_georeference""]"
"3fc06c66-29c5-41fb-bc6f-d630a50d7ef4","lynx","canadensis","7 miles s of tok","united states","alaska","","","-142.9833333333","63.3333333333","[""idigbio_georeference""]"
"400c3ef2-3fda-4891-af33-0d66074eddc1","lynx","canadensis","eilber township","canada","ontario","algoma","","-83.1833333","49.65","[""idigbio_georeference""]"
"403fbfae-4fc8-4462-a9b1-3f984ef28d46","lynx","canadensis","dry creek, alaska highway","united states","alaska","","1964-01-05","-144.5680555556","63.7","[""idigbio_georeference""]"
"40edf348-2f18-423a-b25a-5424186b794b","lynx","canadensis","fairbanks","united states","alaska","","1880-01-01","-147.66","64.83","[""idigbio_georeference""]"
"4144f25f-f638-4f72-8f2e-521b997f8ebc","lynx","canadensis","vigor creek","united states","alaska","","2000-01-01","-148.6833333333","65.3333333333","[""idigbio_georeference""]"
"3f96b3a5-db7b-46d5-8cb8-7b1c2d9d1db4","lynx","canadensis","central","united states","alaska","","1966-03-02","-144.803056","65.5725","[""geolocate_georeference""]"
"415192ff-1c25-48eb-a858-3cc6d3f15aab","lynx","canadensis","salchaket slough","united states","alaska","","1999-11-01","-148.005","64.748056","[""geolocate_georeference""]"
"41ef056e-0cca-4058-8590-8515716c65ad","lynx","canadensis","tazlina river","united states","alaska","","1999-12-01","-146.5838888889","62.0191666667","[""idigbio_georeference""]"
"41fad1a2-e958-4a8c-8e5e-9ce1848b7839","lynx","canadensis","upton","united states","maine","oxford","","-71.01062010000001","44.694252","[""idigbio_georeference""]"
"42e19385-12ce-4e66-828d-15df5bc7e1d1","lynx","canadensis","fill township","canada","ontario","cochrane","1979-12-24","-84.35","49.7666667","[""idigbio_georeference""]"
"41ffbcef-f106-4209-a0cf-458dbe2f4773","lynx","canadensis","30 mi w of pinedale, one horse creek","united states","wyoming","sublette","1965-12-17","-110.307251","42.912454","[""geolocate_georeference""]"
"42db685b-616e-4103-b0b4-3ad38a37dc2c","lynx","canadensis","lick creek","united states","alaska","","","-142.268333","62.573611","[""geolocate_georeference""]"
"42e3682e-2b6e-42cd-8ec3-41d72654c7c2","lynx","canadensis","tiekel river","united states","alaska","","1966-03-30","-144.853611","61.217222","[""geolocate_georeference""]"
"43d304a9-954e-438a-861b-29558e22de0a","lynx","canadensis","vance township","canada","ontario","algoma","1979-12-30","-82.61715","46.75945","[""idigbio_georeference""]"
"43603449-f01e-41d3-a476-7d4c6e10ee6c","lynx","canadensis","anchorage","united states","alaska","","1955-07-27","-149.90248457362145","61.21750406453665","[""idigbio_georeference""]"
"43712844-4096-43f3-8e50-3fc3eb10f61d","lynx","canadensis","kenny lake","united states","alaska","","1966-01-01","-144.9453","61.7353","[""idigbio_georeference""]"
"437d5011-29fb-42b1-8f8e-223b19bcce29","lynx","canadensis","n mount mckinley national park","united states","alaska","","1973-06-27","-150.55280509913564","63.33283238649945","[""idigbio_georeference""]"
"43ac6174-57e2-400e-9f42-2ceafd5874aa","lynx","canadensis","robertson river","united states","alaska","","1999-11-01","-143.8","63.4833333333","[""idigbio_georeference""]"
"4493d754-6272-461c-b32d-e2068f9a00d8","lynx","canadensis","chatanika river / elliot highway","united states","alaska","","1999-11-01","-149.2666666667","65.0666666667","[""idigbio_georeference""]"
"4410ab06-6104-4ee6-9e13-7df8b5ca5ab2","lynx","canadensis","wembley","canada","alberta","","","-119.15","55.15","[""geolocate_georeference""]"
"444fc3b3-8279-4ce4-843a-0f96d7f0f247","lynx","canadensis","cariboo district","canada","british columbia","cariboo","1954-11-28","-122","52","[""geolocate_georeference""]"
"453183be-8e03-4ab1-bbd3-544f0505d8a8","lynx","canadensis","salcha","united states","alaska","","","-146.85","64.4666666667","[""idigbio_georeference""]"
"458113b9-d12a-4285-ae07-8fe79567d9df","lynx","canadensis","lascelles township","canada","ontario","cochrane","1980-12-13","-84.5","49.1166667","[""idigbio_georeference""]"
"453ff7b4-700e-4dde-b4d3-01377d00979a","lynx","canadensis","kippokak bay","canada","newfoundland and labrador","labrador","1901-06-01","-62.3325","57.466667","[""geolocate_georeference""]"
"4672188e-df88-4320-8e06-054ecbec7e8d","lynx","canadensis","one-eye lake","canada","british columbia","","1931-01-01","-124.9","51.9667","[""idigbio_georeference""]"
"46859c55-ec16-4eb7-9906-c7f78b9b3541","lynx","canadensis","tanana river, near fairbanks","united states","alaska","","1965-12-12","-147.75","64.75","[""idigbio_georeference""]"
"46afffcb-4de1-4f46-bd89-7a7e4376628b","lynx","canadensis","robertson river","united states","alaska","","1999-11-01","-143.8082885","63.4931379","[""idigbio_georeference""]"
"47439c15-42bb-45e9-9623-2694a03c681b","lynx","canadensis","anvik","united states","alaska","","","-160.2","62.65","[""idigbio_georeference""]"
"47bc990e-81f8-4d30-8ea9-6bc6dfb9e89d","lynx","canadensis","north fork, anak pass","united states","alaska","","1960-04-07","-153.85580152949956","69.30958281302148","[""idigbio_georeference""]"
"47d9b2ce-9588-4324-97db-d4b9896fc71b","lynx","canadensis","elk city, 40 mi se, 15 mi up running cr.","united states","idaho","","1917-03-27","-115.436794","45.826853","[""geolocate_georeference""]"
"488e110b-1852-4c89-9ebc-54ae4cecdcff","lynx","canadensis","wolf lake","united states","alaska","","2004-12-01","-143.1530277778","63.4571944444","[""idigbio_georeference""]"
"48f2fdc0-5f5b-4d0a-b6aa-f5f074905748","lynx","canadensis","staples township","canada","ontario","algoma","1979-12-20","-82.53934624891185","49.124379029420105","[""idigbio_georeference""]"
"4935c557-cca7-436e-80f2-cecc55fd59ce","lynx","canadensis","specific locality unknown","united states","alaska","","1991-12-01","-143.24","61.35","[""idigbio_georeference""]"
"49768f8e-fdee-4ceb-94e4-0900930b43ae","lynx","canadensis","lake minchumina and foraker river","united states","alaska","","","-152.2333333333","63.8833333333","[""idigbio_georeference""]"
"4855df80-78f6-493d-be74-f8f33e6db720","lynx","canadensis","point mackenzie","united states","alaska","","1958-12-08","-149.978333","61.359722","[""geolocate_georeference""]"
"48627d6e-5498-46bf-a445-fae20aba8589","lynx","canadensis","clear creek at tanana flats.","united states","alaska","yukon-koyukuk dist.","2003-11-16","-142.930383","61.432433","[""geolocate_georeference""]"
"4a7ca955-78fa-46cc-8254-35b4abd9ab86","lynx","canadensis","mount hayes, near, headwaters, little delta river","united states","alaska","","1939-09-27","-146.703333","64.281111","[""geolocate_georeference""]"
"497a3a42-e72a-41a2-8fcd-b3822bff8c9d","lynx","canadensis","mccarthy, chitina river","united states","alaska","","","-144.25","61.683","[""geolocate_georeference""]"
"4a03341e-ae74-470b-9795-f6b4e82cb558","lynx","canadensis","massey township","canada","ontario","cochrane","1980-02-26","-81.7833333","48.5","[""idigbio_georeference""]"
"4aa0dbb2-6f27-4466-a1a9-416f5411b81a","lynx","canadensis","chatanika river, downstream on livengood road","united states","alaska","","1955-12-10","-147.6666666667","65.0833333333","[""idigbio_georeference""]"
"4af015b8-52fb-44a9-aa41-c166d5a96752","lynx","canadensis","black river","united states","alaska","","1954-12-01","-142.3333333333","66.25","[""idigbio_georeference""]"
"49b85355-5f87-4c6e-9d7e-5f85560e5e5e","lynx","canadensis","creighton valley  lumby","canada","british columbia","","1935-02-14","-118.78333","50.216667","[""geolocate_georeference""]"
"4a2031ab-8535-43fa-b448-e22541eb18ea","lynx","canadensis","moose forks","canada","british columbia","","1912-07-22","-134.466667","59.766667","[""geolocate_georeference""]"
"4a76f2c1-7d1e-432c-98c2-5176131f66af","lynx","canadensis","fort reliance","canada","northwest territories","south slave","1907-07-27","-109.133333","62.7","[""geolocate_georeference""]"
"4ad5e6cb-75bd-4249-96a1-70a6f1b34e37","lynx","canadensis","taylor flat, peace river, b. c., canada","canada","british columbia","","1954-06-29","-120","56.15","[""geolocate_georeference""]"
"4ae4680c-1799-4086-9748-f33a762cbdef","lynx","canadensis","knik river, anchorage","united states","alaska","","1969-02-22","-149.900278","61.218056","[""geolocate_georeference""]"
"4b2c3bff-6473-451d-91e6-0ef2bf64a9d2","lynx","canadensis","seaton township","canada","ontario","cochrane","1979-12-15","-82.5333333","48.9166667","[""idigbio_georeference""]"
"4b433b72-e896-422b-b8f9-68d4f5a5d8fa","lynx","canadensis","tazlina lake","united states","alaska","","1964-02-04","-146.4861","61.8868","[""idigbio_georeference""]"
"4b96ba0c-b6d9-4318-b809-05990d4506a7","lynx","canadensis","afton, 6 mi s, 6 mi w of; cottonwood lake","united states","wyoming","lincoln co","1949-09-04","-111.04975915323035","42.63800855550064","[""idigbio_georeference""]"
"4bda6638-4357-4370-8fdf-91034e0888b8","lynx","canadensis","chistochina","united states","alaska","","1995-07-13","-144.66","62.56","[""idigbio_georeference""]"
"4bda788e-5883-4dc9-9de2-b4cdbfa7c68e","lynx","canadensis","20 mi river - portage","united states","alaska","","1958-02-08","-148.978056","60.838056","[""idigbio_georeference""]"
"4c22f96e-d876-471d-94ba-8a682c45dce3","lynx","canadensis","swanson township","canada","ontario","algoma","1979-11-21","-82.37642505812892","49.25503567357437","[""idigbio_georeference""]"
"4b108d6f-59dd-4dfb-a0ab-c2950f3a236f","lynx","canadensis","okanagan l.","canada","british columbia","","","-119.35","50.366667","[""geolocate_georeference""]"
"4b3cec70-6a91-4a60-a15c-67469f7e034a","lynx","canadensis","shell","united states","wyoming","","1919-06-19","-107.779813","44.535516","[""geolocate_georeference""]"
"4c2a2e4e-baa1-4188-a408-c77dd25c5e59","lynx","canadensis","slave river, 20 mi above smith landing","canada","alberta","","1911-03-08","-114.033333","55.455785","[""geolocate_georeference""]"
"4d3e3525-007e-4c28-95a2-de728032887c","lynx","canadensis","norman wells","canada","northwest territories","","2001-01-01","-126.8333333333","65.2833333333","[""idigbio_georeference""]"
"4d6344c4-351b-4739-bb87-e396b7f66b72","lynx","canadensis","7 mile hill","united states","alaska","","2004-12-01","-142.2046944444","62.6821944444","[""idigbio_georeference""]"
"4dc59e43-bfdf-4b21-ad88-dbd289e6a856","lynx","canadensis","gakona","united states","alaska","","1966-01-07","-145.3","62.3","[""idigbio_georeference""]"
"4df74469-3ded-41a1-ab1f-23dfd554a386","lynx","canadensis","chistochina river","united states","alaska","","1964-02-08","-144.6","62.58","[""idigbio_georeference""]"
"4cb12801-27dc-4854-a1ed-32a81029ae53","lynx","canadensis","thickwood lake","canada","ontario","unknown","1980-01-21","-77.88318","44.76979","[""geolocate_georeference""]"
"4d05b9cd-df01-4211-ae5f-422dd4d78ac9","lynx","canadensis","lake mansfield","united states","alaska","","1964-03-12","-143.411122","63.483644","[""geolocate_georeference""]"
"4d551a60-ab2d-4309-b47f-313cba8c7df1","lynx","canadensis","tonsina river","united states","alaska","","1968-04-04","-144.618056","61.641389","[""geolocate_georeference""]"
"4f48b216-a9df-4e58-a3b3-ea0d0a4ba2d6","lynx","canadensis","murphy lake, near canim lake","canada","british columbia","","","-121.8180326820951","51.91661898507925","[""idigbio_georeference""]"
"500a4ad3-787e-4123-a0cf-0f7c247d03c0","lynx","canadensis","chambers township","canada","ontario","timiskaming","1980-02-09","-79.95","47.1166667","[""idigbio_georeference""]"
"4e39a418-2fc2-4378-aead-ff2dbb239c88","lynx","canadensis","near beaver lake, barkerville district","canada","british columbia","","1928-12-01","-129.973611","58.4275","[""geolocate_georeference""]"
"4ffd489a-50c7-4147-aae0-1337692f9145","lynx","canadensis","morrisette township","canada","ontario","timiskaming","1979-12-07","-79.95","48.2333333","[""idigbio_georeference""]"
"50bc1ad3-b1f8-462f-9fc2-37983c1afd7d","lynx","canadensis","west fork of tolovana","united states","alaska","","2000-01-01","-148.6333333333","65.4333333333","[""idigbio_georeference""]"
"50f8250e-e7e1-40ca-8c44-c9d0cbd27be5","lynx","canadensis","north star borough, near fairbanks","united states","alaska","","1990-01-08","-147.7163889","64.8377778","[""idigbio_georeference""]"
"512b405c-2d0a-458e-9896-f0e6cd1ea483","lynx","canadensis","delta creek","united states","alaska","","","-146.3","64.26","[""idigbio_georeference""]"
"51a88896-03b5-46b5-a314-8959c95dc9a4","lynx","canadensis","granite","united states","oregon","grant","1927-10-06","-118.41775740549751","44.809268731450224","[""idigbio_georeference""]"
"5160bebc-bcd6-42bd-9d79-39357a55cc86","lynx","canadensis","fairbanks, chena pump road","united states","alaska","","1964-03-29","-147.9","64.81","[""idigbio_georeference""]"
"504d82a3-f866-4202-bf2a-3a176040fe01","lynx","canadensis","leesburg, 7 mi s, phelan cr.","united states","idaho","","1916-03-12","-114.113965","45.223808","[""geolocate_georeference""]"
"50a5d161-02e6-456d-8110-afc370345f69","lynx","canadensis","caribou river","united states","alaska","","1965-12-10","-161.365","55.952778","[""geolocate_georeference""]"
"5108bbcd-f8c3-4e30-a57b-09d4aaaf0a74","lynx","canadensis","black hills","united states","alaska","","1999-02-01","-141.777222","62.686111","[""geolocate_georeference""]"
"51931e0c-436e-4e60-a704-8c43b642f2e4","lynx","canadensis","codroy","canada","newfoundland and labrador","","","-59.391667","47.881111","[""geolocate_georeference""]"
"52082b30-df67-4689-b5f0-35868ed084bd","lynx","canadensis","cumbres pass","united states","colorado","conejos county","1870-01-01","-106.44944","37.02056","[""idigbio_georeference""]"
"5217eb51-f1f4-4952-92ec-6179fb8931d1","lynx","canadensis","franz","canada","ontario","algoma","1955-02-18","-84.4102286010975","48.46181473422528","[""idigbio_georeference""]"
"52670eb9-006d-4c9a-b261-419eecfaca59","lynx","canadensis","south fork kuskokwim river","united states","alaska","","1963-12-24","-153.54","61.56","[""idigbio_georeference""]"
"53259ee1-087e-479e-8ca9-9ec48c2f3c99","lynx","canadensis","goldstream valley, fairbanks","united states","alaska","","1974-11-02","-147.99083825612954","64.94316483300676","[""idigbio_georeference""]"
"533255d6-9e04-4028-a850-ac0d0061246f","lynx","canadensis","gold hill (canyon)","united states","alaska","","1969-11-11","-147.275278","63.189722","[""geolocate_georeference""]"
"535e394c-12ec-44a9-8ef4-f7bcfc9e2019","lynx","canadensis","burrows township","canada","ontario","sudbury","1979-12-27","-81.4166667","47.8166667","[""idigbio_georeference""]"
"54731ac5-d5e5-44ed-896c-4adb429bf887","lynx","canadensis","tra2410, t67, r3, w5, chisholm","canada","alberta","","1973-02-17","-114.16912583513697","54.90980250466862","[""idigbio_georeference""]"
"54a8a334-55f9-4503-a9e4-c757a71bb2d2","lynx","canadensis","carlin","united states","nevada","","1916-09-19","-116.103966","40.713807","[""geolocate_georeference""]"
"53a6abf4-ef1b-46d0-811a-609ac0922db4","lynx","canadensis","midway lake, 22 mi e of tok","united states","alaska","","1964-01-23","-142.277727","63.334913","[""geolocate_georeference""]"
"56010a81-1b46-4df0-9e2d-2715b4c30ae4","lynx","canadensis","tetlin","united states","alaska","","1880-01-01","-142.51","63.13","[""idigbio_georeference""]"
"5592ac65-28c7-477e-8f6a-d3d75a4ecf76","lynx","canadensis","skilak loop road, near hidden lake","united states","alaska","","1970-03-20","-146.54271","63.243407","[""geolocate_georeference""]"
"55a4a94d-9aae-42fc-8af2-ec5ee2d4f584","lynx","canadensis","big creek","united states","alaska","","1994-12-30","-156.543333","62.671389","[""geolocate_georeference""]"
"5799cec3-b836-40f9-90e7-b5fdc5eca52a","lynx","canadensis","dot lake","united states","alaska","","1964-02-14","-144.0666666667","63.6625","[""idigbio_georeference""]"
"58175f49-834d-4e34-bfd8-d6bc8111710d","lynx","canadensis","tra2132, t50, r24, w5, hinton","canada","alberta","","1972-12-16","-117.57755596099784","53.42643855033259","[""idigbio_georeference""]"
"5826b909-9be3-48f0-aeb4-64850d489165","lynx","canadensis","big timber creek","united states","alaska","","1994-12-01","-141.9666666667","63.75","[""idigbio_georeference""]"
"5703be1d-f47c-4882-b0ba-e744843d13d8","lynx","canadensis","chatanika river","united states","alaska","","1999-11-01","-149.277222","65.076667","[""geolocate_georeference""]"
"582aa2aa-4159-4765-a3b4-3072a9acd47b","lynx","canadensis","ruby creek","canada","yukon territory","","1936-01-01","-119.456667","51.002222","[""geolocate_georeference""]"
"58bdd862-8812-4628-bde7-cd158f8c9a1c","lynx","canadensis","gold king creek","united states","alaska","","","-148.01","64.33","[""idigbio_georeference""]"
"58eb12db-c50f-4d4c-a552-55d1fa564543","lynx","canadensis","anaconda creek","united states","alaska","","1990-12-15","-147.05","64.96","[""idigbio_georeference""]"
"588ef40a-3775-4a90-9506-e4bad86e3bdb","lynx","canadensis","black river at chalkyitsik.","united states","alaska","yukon-koyukuk dist.","2004-01-27","-143.722222","66.654444","[""geolocate_georeference""]"
"58addf69-13d0-49ff-a6f2-1f61b7453fa4","lynx","canadensis","murphy dome road","united states","alaska","","1965-03-21","-148.353333","64.9525","[""geolocate_georeference""]"
"5a307870-c70b-4559-b3bd-529f5d107cbb","lynx","canadensis","orient, jumbo mountain","united states","washington","","1918-10-14","-118.081107","48.863795","[""geolocate_georeference""]"
"595e483e-6fcd-4d3a-8952-192b819c22f0","lynx","canadensis","mendeltna creek","united states","alaska","","1966-02-04","-146.412222","61.9675","[""geolocate_georeference""]"
"59b1b105-ca05-48b9-9ebe-76b72b444685","lynx","canadensis","liberty creek, taylor highway","united states","alaska","","1963-12-24","-141.56","64.03","[""idigbio_georeference""]"
"59d34677-aa8d-4121-874b-fe64c02c2fea","lynx","canadensis","jessiman township","canada","ontario","algoma","1979-11-22","-83.2732","47.106790000000004","[""idigbio_georeference""]"
"59e0e52e-f2b3-4ebf-93ea-3c9c6cc2776c","lynx","canadensis","maisonville township","canada","ontario","timiskaming","1980-02-29","-80.2166667","48.2333333","[""idigbio_georeference""]"
"5a084fbb-edd6-4201-a476-178375b4b805","lynx","canadensis","kussiloff lake, vicinity of cool inlet, kenai peninsula","united states","alaska","","1909-01-19","-150.25","60.1666666667","[""idigbio_georeference""]"
"5a25492e-2ff5-431e-918a-7f52fcd5f673","lynx","canadensis","allen river, head","united states","alaska","","1957-12-22","-152.07694093429652","67.79205037890341","[""idigbio_georeference""]"
"59bf09d4-01b5-4c31-b7df-e0add40a8034","lynx","canadensis","rex and wood rivers","united states","alaska","","1996-01-12","-149.266667","64.216667","[""geolocate_georeference""]"
"5a9106b6-8a41-4f86-8ffd-6c0452d95fd2","lynx","canadensis","ne corner of fort wainwright","united states","alaska","","1972-03-24","-160.029167","70.6375","[""geolocate_georeference""]"
"5af1aa9a-f738-4bb2-b112-52a8a83b64b8","lynx","canadensis","swanneck slough","united states","alaska","","1996-04-13","-149.55","65.0166666667","[""idigbio_georeference""]"
"5b4d7dfb-bea5-41b7-a36e-6856d4c446fb","lynx","canadensis","shefield township, concession 7, lot 23, 1 mi below puzzle lake","canada","ontario","lennox and addington","1977-03-01","-76.97047","44.58625","[""idigbio_georeference""]"
"5adcb305-fa7a-4307-94cf-28464a8aa764","lynx","canadensis","little tok river","united states","alaska","","1965-03-19","-143.344722","63.086111","[""geolocate_georeference""]"
"5b427d9e-873c-4be8-89bf-c7cfe902f766","lynx","canadensis","moon lake","united states","alaska","","1963-01-20","-148.934256","66.117869","[""geolocate_georeference""]"
"5b69627f-fc51-42df-82ac-ad105da31efd","lynx","canadensis","little salcha river","united states","alaska","","","-146.999167","64.528611","[""geolocate_georeference""]"
"5bdc2c38-5bf0-457c-9b81-34a7f2ce9edc","lynx","canadensis","st. andrews","canada","newfoundland and labrador","","1955-06-28","-74.79677","45.09693","[""geolocate_georeference""]"
"5cbb2383-9042-42db-acb5-684068044be7","lynx","canadensis","mcbride township","canada","ontario","cochrane","1980-03-01","-81.6166667","48.0666667","[""idigbio_georeference""]"
"5cdc1c66-9057-4511-b90a-01a979aad1be","lynx","canadensis","delta junction","united states","alaska","","1964-02-02","-147.7333333333","64.0375","[""idigbio_georeference""]"
"5c62f756-a987-4e77-9723-06af98ed1f4b","lynx","canadensis","denali school ground","united states","alaska","","1951-10-23","-147.747222","64.84","[""geolocate_georeference""]"
"5d4ecb8f-32c2-4999-ba35-5e07a2173cc6","lynx","canadensis","sourdough","united states","alaska","","1967-01-15","-145.513611","62.529167","[""geolocate_georeference""]"
"5f15fcf1-89d0-4bec-8fb4-e286ea694c9e","lynx","canadensis","darling creek","united states","alaska","","1994-12-01","-145.87","63.58","[""idigbio_georeference""]"
"5f5d7dbd-41e2-4687-a0a1-34d4552d16b5","lynx","canadensis","livengood","united states","alaska","","1998-12-01","-148.5333333333","65.5166666667","[""idigbio_georeference""]"
"5f5dceee-14bc-49d4-9c7c-41a4ace6537c","lynx","canadensis","mcevay township","canada","ontario","timiskaming","1979-11-09","-80.5833333","48.3333333","[""idigbio_georeference""]"
"5f159e44-315f-46df-bf36-8f027e7dffc3","lynx","canadensis","junction creek, salcha river","united states","alaska","","","-143.916667","65.083333","[""geolocate_georeference""]"
"5ffbf02b-c7f1-4eb2-b3db-3bc44840a4b0","lynx","canadensis","goose bay","united states","alaska","matanuska-susitna borough","1958-07-17","-149.525","61.0375","[""idigbio_georeference""]"
"6008b643-2ef0-4b61-a7b1-d7fef1628809","lynx","canadensis","3.5 mi from murphy dome,on murphy dome road","united states","alaska","","1964-03-12","-148.35","64.95","[""idigbio_georeference""]"
"60c21a44-3ae9-4726-9d81-479333c53c65","lynx","canadensis","strachan township","canada","ontario","sudbury","1979-11-04","-82.1666667","48.5166667","[""idigbio_georeference""]"
"60d5d197-1a2f-472b-861d-a80516b1a1f4","lynx","canadensis","anahim lake","canada","british columbia","","1931-01-01","-125.3167","52.4667","[""idigbio_georeference""]"
"60e077ba-dcd2-4d1e-86bc-2441a52a03c0","lynx","canadensis","sand lake","united states","alaska","","1992-02-27","-149.96","61.15","[""idigbio_georeference""]"
"614a47b0-e67a-4fa0-bc1a-0b38482a87cd","lynx","canadensis","clear creek","united states","alaska","","2004-11-01","-147.67775","64.57175","[""idigbio_georeference""]"
"61519bfd-268b-445b-ac81-5f43c152be29","lynx","canadensis","tetlin","united states","alaska","","1880-01-01","-142.5183","63.1369","[""idigbio_georeference""]"
"61a651fc-78b6-47b9-a16a-7abc3e0a70d2","lynx","canadensis","slana","united states","alaska","","1964-12-01","-143.9633","62.7065","[""idigbio_georeference""]"
"620b7675-4d0d-4808-af97-2655b59781cd","lynx","canadensis","chatanika","united states","alaska","","1998-12-01","-147.46","65.1","[""idigbio_georeference""]"
"621e3f66-9638-43ab-ad00-173287c8a7fd","lynx","canadensis","leo township","canada","ontario","timiskaming","1979-12-30","-80.2166667","47.3666667","[""idigbio_georeference""]"
"651e022c-b305-4671-9411-833b831e4a83","lynx","canadensis","ragged wood lake, east of lac seul","canada","ontario","kenora","1950-03-29","-91.2166667","50.5166667","[""idigbio_georeference""]"
"620ba922-2246-4e65-99fc-a1768b20fd16","lynx","canadensis","near eagle","united states","alaska","","1962-11-11","-141.2","64.788056","[""geolocate_georeference""]"
"6211b7c6-656a-4fcd-b740-fa3017fee1b8","lynx","canadensis","chena ridge","united states","alaska","","1966-01-30","-147.913399","64.835656","[""geolocate_georeference""]"
"62181910-4afc-4d05-86cd-94d47c215619","lynx","canadensis","chena river","united states","alaska","","1880-01-01","-147.911944","64.795556","[""geolocate_georeference""]"
"62268470-4eef-467d-ad62-98698d5f4258","lynx","canadensis","sandwich farm","canada","newfoundland","labrador","1915-01-25","-83.066667","42.283333","[""geolocate_georeference""]"
"62d45f1e-2454-4870-ae2a-8f44f4162f33","lynx","canadensis","birch creek at mckinley r","united states","alaska","","","-151.55","63.86","[""idigbio_georeference""]"
"62d71e27-7ef3-47a1-8164-a8bad6daf7c0","lynx","canadensis","chokosna river","united states","alaska","","1992-03-31","-143.7333333333","61.425","[""idigbio_georeference""]"
"62f15345-63c9-4ae8-b983-537f937865fc","lynx","canadensis","kendall township","canada","ontario","cochrane","1979-12-23","-83.0833333","49.6333333","[""idigbio_georeference""]"
"6336af46-2780-450b-8160-bb65158722ff","lynx","canadensis","aurora township","canada","ontario","cochrane","1979-12-08","-80.75","48.8333333","[""idigbio_georeference""]"
"63e220a6-a379-4f86-9969-c4fd3b4826c6","lynx","canadensis","sec. 11, t47n, r1w","united states","michigan","chippewa","1962-11-15","-84.39314170687054","46.48192192921165","[""idigbio_georeference""]"
"6444abba-3438-4b10-819c-7fbbd7b72bdc","lynx","canadensis","specific locality not recorded","united states","alaska","","2003-11-01","-147.3638888889","65.3588888889","[""idigbio_georeference""]"
"64696f4b-6faf-4e55-a656-7d00d5629afe","lynx","canadensis","specific locality unknown","united states","alaska","","1992-01-01","-147.36","64.35","[""idigbio_georeference""]"
"64a68949-1b96-4d74-9d13-9c3da0e6fa49","lynx","canadensis","specific locality unknown","united states","alaska","","1991-12-01","-147.3644444444","64.3588888889","[""idigbio_georeference""]"
"64e356f5-e452-4077-8f0e-20d428df27f5","lynx","canadensis","lightning creek, barkerville district","canada","british columbia","","1928-01-01","-121.8444","53.0685","[""idigbio_georeference""]"
"64e50eb6-79a5-4dee-b97a-765489f2ee14","lynx","canadensis","timmins","canada","ontario","cochrane","1951-10-30","-81.3333333","48.4666667","[""idigbio_georeference""]"
"652e809f-103d-4c26-b7ef-0451c27e2b6a","lynx","canadensis","chitna area","united states","alaska","","1965-12-01","-144.44","61.51","[""idigbio_georeference""]"
"65cf248f-46e0-4fc3-8e0f-ed49c3428196","lynx","canadensis","tolovana","united states","alaska","","1954-01-01","-149.8333333333","64.8333333333","[""idigbio_georeference""]"
"65f0ca29-1136-4989-befb-412be307039b","lynx","canadensis","hess creek","united states","alaska","","1969-12-26","-149.810278","65.672222","[""geolocate_georeference""]"
"65f6e4e7-2f3f-4627-9822-da9ecf3eec7c","lynx","canadensis","north swanson river","united states","alaska","","1999-01-21","-151.0230555556","60.8002777778","[""idigbio_georeference""]"
"663c0f0d-3e7e-4b51-8445-22f4535bace4","lynx","canadensis","mentasta lake","united states","alaska","","1967-12-04","-143.79","62.93","[""idigbio_georeference""]"
"6677c9b4-e862-4116-b9c9-48fc8d33f45e","lynx","canadensis","pic township","canada","ontario","sudbury","1980-02-29","-86.2833333","48.6833333","[""idigbio_georeference""]"
"66ce5a2f-e318-4e52-bd01-505d80a421c6","lynx","canadensis","george lake","united states","alaska","","2000-02-01","-144.5333333333","63.7833333333","[""idigbio_georeference""]"
"6740eebf-ea1a-4bfa-bd52-b629cac8c8db","lynx","canadensis","upper w fork dennison, fortymile river","united states","alaska","","","-142.5","63.4166666667","[""idigbio_georeference""]"
"66d94332-d197-4263-bbc4-ac12ba23b5e0","lynx","canadensis","grand lake","canada","newfoundland","labrador","","-57.333333","49","[""geolocate_georeference""]"
"66f64197-16ec-4e25-83ef-caaefd3652e0","lynx","canadensis","paxson lake","united states","alaska","","1965-12-11","-145.540234","62.908736","[""geolocate_georeference""]"
"67051d84-9838-4ede-ae85-b8b058d86e2f","lynx","canadensis","gakona river","united states","alaska","","1965-12-01","-145.314444","62.299444","[""geolocate_georeference""]"
"6750a4ae-6459-402f-af45-0944a2bdb189","lynx","canadensis","cathedral rapids","united states","alaska","","1966-03-26","-143.745556","63.385833","[""geolocate_georeference""]"
"67ce5f76-678c-4334-8010-b31a2988b496","lynx","canadensis","gulkana river","united states","alaska","","","-145.4","62.21","[""idigbio_georeference""]"
"687791be-63e1-4ebc-bf1f-9ab3faa6b998","lynx","canadensis","elbow lake","united states","alaska","","1999-01-01","-147.86","66.31","[""idigbio_georeference""]"
"67da6172-b8bd-49e4-a848-13cb0ab94330","lynx","canadensis","mile 1280 alcan highway, deadman lake","united states","alaska","","1968-12-10","-148.251345","63.008448","[""geolocate_georeference""]"
"68cacb8e-5e37-4b62-a796-8272ba4f6cdf","lynx","canadensis","glacier park, kintla lake","united states","montana","","1918-06-29","-113.219259","48.44219","[""geolocate_georeference""]"
"6a31243e-23a6-47e2-9ae3-9aef6d43dde5","lynx","canadensis","goldstream valley","united states","alaska","","1979-11-09","-148","64.91","[""idigbio_georeference""]"
"6b86cc3d-0898-40e5-bfbe-5c0994c4487d","lynx","canadensis","haystack mountain","united states","alaska","","1963-12-16","-147.6166666667","65.1305555556","[""idigbio_georeference""]"
"6b64b8e5-3eca-4ed1-ba66-6888a6642550","lynx","canadensis","klutina river","united states","alaska","","1972-08-12","-145.285833","61.955278","[""geolocate_georeference""]"
"6ba9c9f6-fe64-45ed-81f4-8276704f2577","lynx","canadensis","clear water creek","united states","alaska","","1961-01-28","-145.683333","68.383333","[""geolocate_georeference""]"
"6c5e1656-712d-4187-b7c7-91528996034b","lynx","canadensis","sand lake","united states","alaska","","1992-02-27","-149.9625","61.1516666667","[""idigbio_georeference""]"
"6c88251e-8710-4d57-8898-6767ba934050","lynx","canadensis","seward, kenai peninsula","united states","alaska","","1906-04-01","-149.4422222222","60.1041666667","[""idigbio_georeference""]"
"6c59e293-4cf4-4496-8ccd-9ae8196e361b","lynx","canadensis","george lake lodge","united states","alaska","","1969-04-04","-144.694722","63.761944","[""geolocate_georeference""]"
"6c65ae1a-2c3c-4cec-9977-8a732c5a3ce2","lynx","canadensis","payette national forest, penn basin","united states","idaho","","1939-09-21","-115.802576","45.08587","[""geolocate_georeference""]"
"6cee7d01-9965-48e6-8ee6-f7057658964e","lynx","canadensis","fort smith","canada","northwest territories","mackenzie district","","-111.883333","60","[""geolocate_georeference""]"
"6f1853d3-a6d4-4707-90b0-e9e7796bd64d","lynx","canadensis","salsberg township","canada","ontario","kenora","1980-01-08","-87.0166667","49.6166667","[""idigbio_georeference""]"
"6edcb17f-8148-4998-9863-7c2fce25787f","lynx","canadensis","unknown","canada","ontario","unknown","1950-03-29","-84.7482186","49.2678238","[""idigbio_georeference""]"
"6fa2f05f-6cb3-4396-8390-84661ed5d6cd","lynx","canadensis","mcallister township","canada","ontario","thunder bay","1979-11-30","-87.87843","48.9457","[""idigbio_georeference""]"
"6dd89a14-cead-4f5c-b50c-7f5afc02b75e","lynx","canadensis","goldstream near saulich","united states","alaska","","1964-03-20","-148.239444","64.878056","[""geolocate_georeference""]"
"6debe80d-7f35-46de-88c7-d6f9565c782d","lynx","canadensis","muddy river","united states","alaska","","1963-01-14","-160.192778","56.373889","[""geolocate_georeference""]"
"6e8fa8ae-1633-4114-aa04-5a59f90fb090","lynx","canadensis","macmillan river","canada","yukon","","","-135.916667","62.866667","[""geolocate_georeference""]"
"6f4343a4-4114-4c01-9a04-da9f1000cfbd","lynx","canadensis","shaw creek","united states","alaska","","","-146.1","64.25","[""idigbio_georeference""]"
"70a61a2c-0a52-47d2-bc9a-e39ac457e562","lynx","canadensis","mathieu township","canada","ontario","thunder bay","1979-11-30","-94.1666667","49.05","[""idigbio_georeference""]"
"6f3d7597-c6c8-4242-b77f-597aa2afbe2e","lynx","canadensis","w of gulkana","united states","alaska","","1966-02-08","-145.382222","62.271389","[""geolocate_georeference""]"
"6f782ab4-93cd-47ed-8f41-32bafbc45056","lynx","canadensis","edson","canada","alberta","","","-116.416667","53.583333","[""geolocate_georeference""]"
"704ae650-0ef7-4d45-9292-31d4790c6745","lynx","canadensis","slime creek, cantwell","united states","alaska","","","-148.818889","63.511389","[""geolocate_georeference""]"
"7199d333-fa82-4a10-b943-0b39af7c0d5b","lynx","canadensis","arrow lakes","canada","british columbia","kootenay boundary","","-118.06805600000001","49.866667","[""idigbio_georeference""]"
"71a7076b-e52b-422b-9d7d-b5e428b13e2d","lynx","canadensis","gakona","united states","alaska","","1965-12-21","-145.3041","62.3014","[""idigbio_georeference""]"
"722e575a-7267-49cd-bb3f-cb3b590c0bf2","lynx","canadensis","farewell lake","united states","alaska","","1962-12-18","-153.6383","62.5541","[""idigbio_georeference""]"
"7140d8ea-0d95-4c21-96cc-0ad92117cbfc","lynx","canadensis","glacier lake","canada","northwest territories","south slave","1937-07-22","-127.551752","62.083224","[""geolocate_georeference""]"
"722c6858-5a55-48fb-b7b7-d4bef5456a61","lynx","canadensis","mile 20 se beaver","united states","alaska","","1970-12-12","-147.396389","66.359444","[""geolocate_georeference""]"
"738dfd54-f140-4e78-812d-d0cdaffd10c7","lynx","canadensis","nassau township","canada","ontario","cochrane","1980-02-05","-84.1666667","49.65","[""idigbio_georeference""]"
"73d5e33e-75da-4546-9895-b76d133bb28e","lynx","canadensis","lick creek","united states","alaska","","","-142.26","62.58","[""idigbio_georeference""]"
"72e64fa2-f121-44df-9b8f-4766c387dd75","lynx","canadensis","black rapids","united states","alaska","","1965-03-06","-145.86","63.531111","[""geolocate_georeference""]"
"7326d26a-0a1f-49d7-b0b7-49e3f71e9569","lynx","canadensis","birch hill","united states","alaska","","1966-01-02","-164.8775","65.206667","[""geolocate_georeference""]"
"73694d6a-90a7-484b-959e-3b186f7458ec","lynx","canadensis","wolf lake","united states","alaska","","1964-02-05","-149.280589","61.644307","[""geolocate_georeference""]"
"73a34afd-212b-49c0-bb40-cf6ce0823e69","lynx","canadensis","eielson air force base","united states","alaska","","","-147.094362","64.669596","[""geolocate_georeference""]"
"74bca046-a5c8-475c-8bc3-10e627612399","lynx","canadensis","gaudry township","canada","ontario","algoma","1980-02-03","-83.78221","47.10365","[""idigbio_georeference""]"
"75106aac-001d-4db9-9686-183bd277028f","lynx","canadensis","taku river, se alaska","united states","alaska","","1907-05-21","-133.8413888889","58.5175","[""idigbio_georeference""]"
"7519cf12-cef8-454a-a264-5e641ba54f00","lynx","canadensis","rosie creek","united states","alaska","","1990-12-01","-148.0833333333","64.7333333333","[""idigbio_georeference""]"
"74ec95b5-fdc5-4241-af14-40f2f774f021","lynx","canadensis","island lake","canada","manitoba","","","-94.766667","53.966667","[""geolocate_georeference""]"
"752d5aa2-9eb4-4808-83d7-4381c8249a27","lynx","canadensis","berry creek","united states","alaska","","1966-02-26","-163.982778","65.659167","[""geolocate_georeference""]"
"75406915-b0e7-45be-aa75-267d57130bc3","lynx","canadensis","knik river bridge","united states","alaska","","1971-02-19","-149.406389","61.470833","[""geolocate_georeference""]"
"7565e110-ca78-4b5c-974d-5e8665a70588","lynx","canadensis","fairbanks","united states","alaska","fairbanks north star borough","1969-11-28","-147.716389","64.837778","[""geolocate_georeference""]"
"76334864-f70c-42d9-81d5-1e0937a57045","lynx","canadensis","moose creek","united states","alaska","","1962-12-15","-147.13","62.7","[""idigbio_georeference""]"
"7642ebb2-36c3-4ae9-aaa8-9f8c42df6b13","lynx","canadensis","mile 37, dalton highway","united states","alaska","","1996-03-01","-149.3746111111","65.7611361111","[""idigbio_georeference""]"
"765324be-daa8-412a-a140-b6704a4769b0","lynx","canadensis","anaconda creek","united states","alaska","","1990-12-15","-147.05","64.9666666667","[""idigbio_georeference""]"
"76d8d99e-e7f8-4c11-b69e-706cc1caa8eb","lynx","canadensis","bryant township","canada","ontario","thunder bay","1979-12-30","-85.51413","48.7572","[""idigbio_georeference""]"
"76f50737-a63d-40ef-b050-9ec2124a1666","lynx","canadensis","toronto, bathurst avenue and saint clair avenue","canada","ontario","york; metro toronto","1905-06-30","-79.3833333","43.6666667","[""idigbio_georeference""]"
"7708720a-0dae-4d0a-9e5a-ada9d4cd06c4","lynx","canadensis","","united states","alaska","","","-147.25","64.35","[""idigbio_georeference""]"
"77394e3f-82bd-48c5-8a75-969c148d1ee2","lynx","canadensis","edighoffer township","canada","ontario","sudbury","1980-02-02","-82.6333333","47.2833333","[""idigbio_georeference""]"
"75f82fed-bf0f-45c0-8be9-3799a1b263e7","lynx","canadensis","bolio lake, delta area","united states","alaska","","1964-11-09","-145.843611","63.894444","[""geolocate_georeference""]"
"766c4c1b-15f9-4fab-a8ff-7fa4c9899595","lynx","canadensis","tatalina river","united states","alaska","","1972-11-24","-149.2975","65.088333","[""geolocate_georeference""]"
"781a9260-cc7b-46a5-956c-18b02eaf89cf","lynx","canadensis","stimson township","canada","ontario","cochrane","1979-11-27","-80.6166667","49","[""idigbio_georeference""]"
"78227e69-68c0-4902-9f4d-2a79a7690a47","lynx","canadensis","jacksina river","united states","alaska","","1999-11-01","-142.8666666667","62.35","[""idigbio_georeference""]"
"78efd607-338f-4ba6-9f5c-d5e1ad1d84d9","lynx","canadensis","","united states","maine","","","-69.356201","45.151684","[""idigbio_georeference""]"
"788c43fa-b378-4092-9a16-cbd5b371dd7c","lynx","canadensis","diamond, kieger ceek","united states","oregon","","1916-10-28","-118.666031","43.012103","[""geolocate_georeference""]"
"c6741b04-c600-4b09-b6cb-45f2d0eb39ca","lynx","canadensis","east fork of chandalar river at arctic village","united states","alaska","yukon-koyukuk dist.","2004-01-16","-145.537778","68.126944","[""geolocate_georeference""]"
"791272ce-a0b3-4999-ab31-e5def9a34b2f","lynx","canadensis","tanana flats, crooked creek","united states","alaska","","2000-04-04","-151.279167","60.320833","[""geolocate_georeference""]"
"79e947df-77bf-486e-88f7-bc6d2733666c","lynx","canadensis","fairbanks, 20-30 mi s, tanana flats","united states","alaska","","1975-02-28","-147.71038451265824","64.47616740965651","[""idigbio_georeference""]"
"79ffbe33-4e3e-431c-bb70-24be3ebaa194","lynx","canadensis","black river","united states","alaska","","1954-12-01","-142.33","66.25","[""idigbio_georeference""]"
"7a87a77f-7b44-4b1a-9f13-9310839859f8","lynx","canadensis","eielson air force base","united states","alaska","","1954-03-13","-147.0833333333","64.6666666667","[""idigbio_georeference""]"
"7b107aa6-7190-435d-a703-1e3a4a90d688","lynx","canadensis","herb lake","canada","manitoba","","","-99.779678","54.77826","[""idigbio_georeference""]"
"7990ce60-b029-433e-a45f-ae22b66ab132","lynx","canadensis","dry creek, healy","united states","alaska","","1964-01-30","-165.416389","64.502222","[""geolocate_georeference""]"
"7a93994b-60af-46a2-ac5a-25fd506d29cb","lynx","canadensis","south creek, dot lake","united states","alaska","","1966-03-04","-147.299167","61.990278","[""geolocate_georeference""]"
"7b37b774-4ec3-4c36-a6bf-1970e485d3da","lynx","canadensis","chugiak","united states","alaska","","1957-03-07","-149.48415646808104","61.388347477880544","[""idigbio_georeference""]"
"7b5e9798-7ba2-4dcf-8659-692463ccaaf8","lynx","canadensis","bell township","canada","ontario","kenora","1980-01-13","-85.4333333","49.9166667","[""idigbio_georeference""]"
"7bb4eed7-bf56-4004-b3fe-ad309b9eda91","lynx","canadensis","jan lake","united states","alaska","","","-143.9166666667","63.5666666667","[""idigbio_georeference""]"
"7bf490da-e46f-460d-b637-e409d4e15a7d","lynx","canadensis","roche township","canada","ontario","algoma","1950-03-25","-83.91317124204868","49.12299959051406","[""idigbio_georeference""]"
"7c988c36-26eb-40bb-a2aa-1b35de54b841","lynx","canadensis","sheep creek road","united states","alaska","","1963-12-22","-147.92","64.88","[""idigbio_georeference""]"
"7cc9f7df-2591-44e9-89b2-17743c5f3a19","lynx","canadensis","anchorage","united states","alaska","","1956-06-19","-149.142223","61.128007","[""idigbio_georeference""]"
"7c1c422d-134c-4ac6-999b-1733434e6e17","lynx","canadensis","chitina","united states","alaska","","1965-12-01","-144.436944","61.515833","[""geolocate_georeference""]"
"7d079759-4cf6-478a-b698-d0c763eb7fd3","lynx","canadensis","","united states","alaska","","1964-03-03","-143.35","63.38","[""idigbio_georeference""]"
"7d729889-c1c3-43c9-8033-105c62a946ad","lynx","canadensis","wolf lake","united states","alaska","","2004-12-01","-142.1530277778","63.4571944444","[""idigbio_georeference""]"
"7d9ab893-c334-4d1c-be4e-90799ac55fa8","lynx","canadensis","nikolai","united states","alaska","","","-154.15","62.9666666667","[""idigbio_georeference""]"
"7da2c04e-23bd-4a6f-85f4-338297371fe1","lynx","canadensis","dorion township","canada","ontario","thunder bay","1979-12-30","-88.64952","48.78349","[""idigbio_georeference""]"
"7dd9d1ed-4a6c-4425-9f0e-c59460b0b95d","lynx","canadensis","black hills","united states","alaska","","","-141.75","62.66","[""idigbio_georeference""]"
"7ddb3145-7d2b-4b43-8d1a-9ba61d5714ce","lynx","canadensis","little falls brook","canada","newfoundland and labrador","","1956-04-23","-58.0333333333333","48.9","[""idigbio_georeference""]"
"7df5d039-67a9-426a-9f9b-85d5c5ef7b14","lynx","canadensis","lyon township","canada","ontario","thunder bay","1979-12-30","-88.31313","48.86418","[""idigbio_georeference""]"
"7d61a911-df3c-4f96-9654-6f4784cd48dd","lynx","canadensis","junction creek","united states","alaska","","","-160.948333","64.132222","[""geolocate_georeference""]"
"7d7d0739-00eb-4ce6-ace1-ce4e3c3d10f3","lynx","canadensis","siwash creek","united states","alaska","","2000-02-25","-151.069167","62.570833","[""geolocate_georeference""]"
"7d8c684b-efb0-4c0d-8a86-d18fff7f971c","lynx","canadensis","west fork fortymile","united states","alaska","","1966-11-04","-150.448889","61.428889","[""geolocate_georeference""]"
"7e558842-ed6e-4538-83cd-5015b3f2765f","lynx","canadensis","pelly river, mouth of indian creek","canada","yukon","","","-138.383333","67.566667","[""geolocate_georeference""]"
"7ebcdf3a-333b-4f2f-9ed0-484ecd19fccd","lynx","canadensis","chitna area","united states","alaska","","","-144.442","61.5156","[""idigbio_georeference""]"
"7ef91ea9-9000-4067-8d5e-b092daf2c4ec","lynx","canadensis","hellyer township","canada","ontario","sudbury","1979-12-19","-82.7833333","47.9666667","[""idigbio_georeference""]"
"7f65a445-52bf-4183-bf5c-82a933a52867","lynx","canadensis","lower salcha river","united states","alaska","","1998-12-31","-143.9166666667","65.0833333333","[""idigbio_georeference""]"
"7fe79bce-e2c8-4ccd-bce3-8bb39fc3ce42","lynx","canadensis","skyridge drive","united states","alaska","","2010-09-22","-147.6716166667","64.9207","[""idigbio_georeference""]"
"7ff3a9b5-687a-4b98-8011-8df5984149cd","lynx","canadensis","gerstle river","united states","alaska","","1964-02-14","-145.1333333333","64.0583333333","[""idigbio_georeference""]"
"7ef3e1f6-25cd-4aed-8e8f-910d04311b32","lynx","canadensis","little tonsina river","united states","alaska","","1965-02-03","-145.208889","61.611389","[""geolocate_georeference""]"
"7f355855-ba7f-44a4-aeae-87d52c6ca68a","lynx","canadensis","moose creek","united states","alaska","","1967-12-23","-147.143611","64.71","[""geolocate_georeference""]"
"7fb8520a-b213-418b-8785-f566ad06bf9b","lynx","canadensis","bonanza creek","united states","alaska","","1966-01-16","-151.345","65.322778","[""geolocate_georeference""]"
"81eddbb1-0a4c-4b2c-acc2-0c7a7e99d042","lynx","canadensis","farquhar township","canada","ontario","cochrane","1979-11-19","-84.4","49.25","[""idigbio_georeference""]"
"82c0dedd-f870-4379-9a11-3cc83505dd7c","lynx","canadensis","mckelvie township","canada","ontario","thunder bay","1980-01-03","-86.88311","49.62324","[""idigbio_georeference""]"
"82224865-0978-42f3-8a04-fb636b26d024","lynx","canadensis","5 m east fairbanks","united states","alaska","","2003-01-01","-147.54712","64.8370883333","[""idigbio_georeference""]"
"8244a228-b652-4996-8883-89e9cc15de5b","lynx","canadensis","blair lakes","united states","alaska","","1998-12-01","-147.35","64.35","[""idigbio_georeference""]"
"81f8b51d-214f-4a6d-b8f7-a45da8789d99","lynx","canadensis","kotsina river","united states","alaska","","1967-04-02","-144.408333","61.54","[""geolocate_georeference""]"
"820a1d0f-9196-4b11-87e8-e99e2f89985b","lynx","canadensis","dominion creek, salmon river drainage, aniak","united states","alaska","","1962-12-09","-155.189167","64.483333","[""geolocate_georeference""]"
"83dae67b-6f24-4c18-b975-64223e2a3c11","lynx","canadensis","north williams township","canada","ontario","timiskaming","1980-01-11","-81","47.45","[""idigbio_georeference""]"
"83fa897b-2fed-42ff-94c6-d865778fd930","lynx","canadensis","mitchell's ranch (mosquito flats)","united states","alaska","","","-142.91","63.86","[""idigbio_georeference""]"
"8424e521-fe69-49bf-b736-a40e838c8792","lynx","canadensis","bayly township","canada","ontario","timiskaming","1980-02-10","-79.7","47.9","[""idigbio_georeference""]"
"82a01515-198e-4aac-8752-e1b8b331918c","lynx","canadensis","pelly river, kalzas river","canada","yukon","","1905-06-28","-135.483333","62.866667","[""geolocate_georeference""]"
"82f9e115-0f37-492e-9bd0-6160b23ae0f2","lynx","canadensis","tatletuey lake, head of, 12 mi w thurdade lake","canada","british columbia","","1913-09-27","-133.916667","59.416667","[""geolocate_georeference""]"
"83731976-fc9e-4f7f-bf95-8b6ae4507a8a","lynx","canadensis","tompkins","canada","newfoundland and labrador","","1954-07-28","-59.219167","47.803611","[""geolocate_georeference""]"
"8375285d-ca0e-41b7-b425-f5ac7cc0dac4","lynx","canadensis","bridge lake","united states","wyoming","","1917-10-02","-106.109178","41.146641","[""geolocate_georeference""]"
"8389d925-fe92-4719-a109-9c0540e31d1f","lynx","canadensis","trout lake","united states","washington","","1896-02-07","-117.373135","48.12085","[""geolocate_georeference""]"
"83d0de64-667b-4c1b-ad11-068e20874dba","lynx","canadensis","our point of view lodge, kenai lake","united states","alaska","","1958-02-15","-149.468444","60.399708","[""geolocate_georeference""]"
"84c101d0-e61a-4634-a3a1-2129dd14088c","lynx","canadensis","leonard township","canada","ontario","timiskaming","1980-01-17","-81","47.55","[""idigbio_georeference""]"
"84c88f2a-0f06-4458-b29b-a3d1e775a012","lynx","canadensis","specific locality unknown","united states","alaska","","1992-02-02","-145.5323","61.4291","[""idigbio_georeference""]"
"85629a8f-ab7a-42f3-a86c-0d39a2a03441","lynx","canadensis","gaunt township","canada","ontario","algoma","1980-01-30","-83.14607","47.19304","[""idigbio_georeference""]"
"8978108b-6de2-4dc0-818e-5f18b72e36c0","lynx","canadensis","allenby township","canada","ontario","algoma","1980-01-20","-82.73489","48.90654","[""idigbio_georeference""]"
"84de3d3d-b150-4fb3-8a31-9ebaa04ddc14","lynx","canadensis","park rapids, 4 mi e","united states","washington","stevens county","1940-03-31","-117.551727","48.526261","[""geolocate_georeference""]"
"85d53b5f-2169-434b-90c0-6ab886d94ad2","lynx","canadensis","tazlina river, glennallen","united states","alaska","","1966-03-23","-145.387222","62.038611","[""geolocate_georeference""]"
"86754f60-73ad-410b-96b2-01590e889d2b","lynx","canadensis","fort nelson, 94 mi s of; buckinghorse river","canada","british columbia","peace river dist","1946-07-01","-122.69892359910125","57.44643050155895","[""idigbio_georeference""]"
"86ad2873-4dc1-4a89-9afc-f0be5924641b","lynx","canadensis","isle royale,near wahsington harbor","united states","michigan","keweenaw","","-89.1921880360685","47.89999154656207","[""idigbio_georeference""]"
"8701157f-1dd1-4be5-a32f-2b55f9d99ea6","lynx","canadensis","robertson river","united states","alaska","","1964-02-02","-143.78","63.5","[""idigbio_georeference""]"
"871eaeb0-f6c4-4589-8f6e-8f68dd2cc4db","lynx","canadensis","calder township","canada","ontario","cochrane","1979-12-01","-81.3666667","49.0833333","[""idigbio_georeference""]"
"8723fcec-6043-48c2-9e87-7bb80dd58894","lynx","canadensis","(northern part), nelson house, registered trapline 40","canada","manitoba","manitoba","1952-01-30","-98.8874969","55.7852783","[""idigbio_georeference""]"
"877cd647-9c49-494d-a3d0-09443df12ba8","lynx","canadensis","rosie creek","united states","alaska","","1990-12-01","-148.08","64.73","[""idigbio_georeference""]"
"864540bd-9b68-4da4-84ae-426209788784","lynx","canadensis","st. albert","canada","alberta","","1961-11-13","-113.620278","53.636944","[""geolocate_georeference""]"
"86b2e2bd-2828-4299-88c8-4540af694cef","lynx","canadensis","chugiak","united states","alaska","","1957-03-07","-149.481944","61.388889","[""geolocate_georeference""]"
"87ddc521-428b-4e43-85ab-d67b5d5ea830","lynx","canadensis","1 mi up trout creek, summerland, okanagan lake","canada","british columbia","","1932-06-24","-119.6667","49.6","[""idigbio_georeference""]"
"88153d1b-44e5-4ffb-9682-138ab3a3fc0c","lynx","canadensis","bowron lake rd., barkerville district","canada","british columbia","","1926-01-01","-121.43","53.24","[""idigbio_georeference""]"
"887656db-6016-473f-bda3-b80e4688e296","lynx","canadensis","eklutna lake","united states","alaska","","1969-02-01","-149.04","61.38","[""idigbio_georeference""]"
"887fdf6b-4131-4b2a-a393-b89d59f640ac","lynx","canadensis","","united states","alaska","","","-141.68","62.81","[""idigbio_georeference""]"
"888ff908-effa-447a-a0c7-b936f5d2e7f8","lynx","canadensis","sandwich bay","canada","british columbia","","1915-01-15","-57.25","53.583333","[""geolocate_georeference""]"
"88a96122-e139-49f4-9720-7bdc054f36f9","lynx","canadensis","grass river, fort yukon","united states","alaska","","1965-12-10","-144.846111","66.608056","[""geolocate_georeference""]"
"88e7e3b4-2596-4d42-9ef1-77b002c6e4ad","lynx","canadensis","temagami","canada","ontario","nipissing district","1984-03-23","-79.971667","47.029722","[""geolocate_georeference""]"
"894b0250-cb64-4494-ac9f-704ce2c8887b","lynx","canadensis","clear creek by anderson","united states","alaska","","1995-02-07","-149.1166666667","64.4","[""idigbio_georeference""]"
"89844505-ff66-4e57-b546-c8eb90444fe8","lynx","canadensis","vicinity of yakutat","united states","alaska","","1915-01-01","-139.7272222222","59.5469444444","[""idigbio_georeference""]"
"89a5abd7-67a7-456d-b1cf-49b8562fa884","lynx","canadensis","","united states","alaska","","1996-03-03","-148.1347222222","64.5972222222","[""idigbio_georeference""]"
"89abc59c-9b58-4cca-8541-b9306a3575e1","lynx","canadensis","","united states","alaska","","","-141.9","64.05","[""idigbio_georeference""]"
"89bf40d5-1239-4b1d-900c-c553d68a845c","lynx","canadensis","foulds township","canada","ontario","algoma","1979-01-02","-83.27490000000002","47.19204","[""idigbio_georeference""]"
"8a20803e-0b05-463d-8773-a19f1f4b549e","lynx","canadensis","fairbanks, within 50 mi radius","united states","alaska","","","-147.71881300378394","64.83734677356986","[""idigbio_georeference""]"
"8aad4844-23e3-4947-9010-3e4887d8d504","lynx","canadensis","mckeown township","canada","ontario","timiskaming","1979-10-31","-81.5166667","48.2333333","[""idigbio_georeference""]"
"8ac24f6e-8dd3-42f6-b6b2-31909000ebf5","lynx","canadensis","mcvittie township","canada","ontario","timiskaming","1979-11-24","-79.7","48.15","[""idigbio_georeference""]"
"8adb7efd-0673-4c08-843d-b5b9dae8facd","lynx","canadensis","specific locality not recorded","united states","alaska","","2003-11-01","-147.3638888889","64.3588888889","[""idigbio_georeference""]"
"89b4c945-6bf3-40f2-8431-301d8372cff7","lynx","canadensis","2 mi from site love on site love road, n of fairbanks","united states","alaska","","1963-12-20","-147.720833","64.845833","[""geolocate_georeference""]"
"89bd51c5-83b9-400a-b75b-c9e6bfc98596","lynx","canadensis","sheep mountain lodge","united states","alaska","","1952-11-02","-147.493611","61.8125","[""geolocate_georeference""]"
"89f26a15-e355-4176-8f05-aea85565e3fb","lynx","canadensis","dunbar trail near big minto lakes","united states","alaska","","1996-01-05","-148.770262","64.903065","[""geolocate_georeference""]"
"8bc077ca-74ee-42fe-bbce-f26358ee04d5","lynx","canadensis","rowlandson township","canada","ontario","cochrane","1979-11-19","-84.8166667","50.0333333","[""idigbio_georeference""]"
"8c0a5ad8-516e-4ad5-b87a-659b9c0d5c47","lynx","canadensis","tra2187, t97, r22, w5, manning","canada","alberta","","1976-02-02","-117.62775134742837","56.92506704472693","[""idigbio_georeference""]"
"8c221d31-8f0b-4765-984d-1ad3df70504d","lynx","canadensis","","united states","alaska","","1955-11-01","-156.8333333333","66","[""idigbio_georeference""]"
"8c6426b6-f78a-4ac4-bbbe-523259ffff47","lynx","canadensis","globe creek, livengood road.","united states","alaska","","1963-09-24","-146.481111","64.75","[""geolocate_georeference""]"
"8c91cbf5-3d3c-4595-a685-9c5c337f9da1","lynx","canadensis","mccord creek","united states","alaska","","","-141.0075","63.622222","[""geolocate_georeference""]"
"8d05098e-ccb6-4f97-abf1-7d483674d357","lynx","canadensis","mile 101  elliot highway","united states","alaska","","1990-12-20","-150.6333333333","65","[""idigbio_georeference""]"
"8d958636-d1f0-4b35-9bae-45df2b79ed38","lynx","canadensis","golden","canada","british columbia","","1952-02-28","-116.96779121926906","51.29998258135683","[""idigbio_georeference""]"
"8da6b1f7-c490-4c83-bb27-05a54a99f10f","lynx","canadensis","kotzebue sound","united states","alaska","northwest arctic","1860-01-01","-162.4952847","66.7379835","[""idigbio_georeference""]"
"8d836d8f-a98b-4b46-8ff0-4fe097726109","lynx","canadensis","hudson lake","united states","alaska","","1966-03-30","-145.675876","61.898648","[""geolocate_georeference""]"
"8e984e53-416f-46b5-bcb0-772b97d948a7","lynx","canadensis","15 mi ne along coast from wainwright","united states","alaska","","1957-10-01","-159.601603","70.801097","[""idigbio_georeference""]"
"8ee6cabe-dc17-4060-a301-4415bc892706","lynx","canadensis","ivanhoe township","canada","ontario","sudbury","1980-01-30","-82.5","48.1333333","[""idigbio_georeference""]"
"8f59cf27-cd4d-498c-b39b-7f308fbd1afc","lynx","canadensis","billy goat corral t38n, r20e, s14","united states","washington","okanogan","1982-12-12","-120.31120000000001","48.7931","[""idigbio_georeference""]"
"8fd0bb60-38b4-4100-9f70-940347fad41d","lynx","canadensis","glenn highway, mile 170","united states","alaska","","1957-03-04","-146.0933518249276","62.09860015096835","[""idigbio_georeference""]"
"8fedbb68-3265-41e4-bd8a-bc02f01d4dc4","lynx","canadensis","lick creek","united states","alaska","","","-142.2666666667","62.5833333333","[""idigbio_georeference""]"
"8e6a39f5-1c30-40f9-b576-6e764483312f","lynx","canadensis","talkeetna","united states","alaska","","1959-01-16","-150.109444","62.323889","[""geolocate_georeference""]"
"8e8dbe46-2b9a-43c5-a3f6-c38fead0c5de","lynx","canadensis","tanacross","united states","alaska","","1965-01-05","-143.346389","63.385278","[""geolocate_georeference""]"
"8ee905c4-d3f6-4c81-ac20-9a51d255e0ca","lynx","canadensis","dot lake","united states","alaska","","1963-12-03","-144.064444","63.661389","[""geolocate_georeference""]"
"8f82ef4d-9998-4602-966d-076a19789733","lynx","canadensis","cache creek","canada","british columbia","thompson-nicola","1954-10-29","-121.316667","50.8","[""geolocate_georeference""]"
"8fb99a02-01d0-4b85-afbe-6845ebac1142","lynx","canadensis","white mountain; 3 mi up river","united states","alaska","","1967-03-22","-133.11","55.078333","[""geolocate_georeference""]"
"8fe6debb-5ea9-428c-af55-9dc898df3f17","lynx","canadensis","healy","united states","alaska","","1963-12-20","-148.966111","63.856944","[""geolocate_georeference""]"
"90956e47-a0a4-4015-81e4-7b81a3fc3c83","lynx","canadensis","crooked creek","united states","alaska","","1999-01-03","-147.9166666667","64.4166666667","[""idigbio_georeference""]"
"90b24043-b3ed-4575-91e7-542a0b6fd73d","lynx","canadensis","mccrea township","canada","ontario","algoma","1980-01-26","-82.9666667","49.5","[""idigbio_georeference""]"
